[
  {
    "country": "PH",
    "region": "Ilocos",
    "province": "Province of Ilocos Norte",
    "city": "Laoag City",
    "postal": "2900",
    "lat": 18.1978,
    "lon": 120.5957
  },
  {
    "country": "PH",
    "region": "Ilocos",
    "province": "Province of Ilocos Norte",
    "city": "San Nicolas",
    "postal": "2901",
    "lat": 18.1725,
    "lon": 120.5953
  },
  {
    "country": "PH",
    "region": "Ilocos",
    "province": "Province of Ilocos Norte",
    "city": "Paoay",
    "postal": "2902",
    "lat": 18.0616,
    "lon": 120.5221
  },
  {
    "country": "PH",
    "region": "Ilocos",
    "province": "Province of Ilocos Norte",
    "city": "Currimao",
    "postal": "2903",
    "lat": 18.0182,
    "lon": 120.4876
  },
  {
    "country": "PH",
    "region": "Ilocos",
    "province": "Province of Ilocos Norte",
    "city": "Badoc",
    "postal": "2904",
    "lat": 17.9265,
    "lon": 120.4764
  },
  {
    "country": "PH",
    "region": "Ilocos",
    "province": "Province of Ilocos Norte",
    "city": "Pinili",
    "postal": "2905",
    "lat": 17.9517,
    "lon": 120.5278
  },
  {
    "country": "PH",
    "region": "Ilocos",
    "province": "Province of Ilocos Norte",
    "city": "Batac",
    "postal": "2906",
    "lat": 18.0371,
    "lon": 120.5699
  },
  {
    "country": "PH",
    "region": "Ilocos",
    "province": "Province of Ilocos Norte",
    "city": "Marcos",
    "postal": "2907",
    "lat": 18.052,
    "lon": 120.6898
  },
  {
    "country": "PH",
    "region": "Ilocos",
    "province": "Province of Ilocos Norte",
    "city": "Banna (formerly Espiritu)",
    "postal": "2908",
    "lat": 18.0371,
    "lon": 120.5699
  },
  {
    "country": "PH",
    "region": "Ilocos",
    "province": "Province of Ilocos Norte",
    "city": "Nueva Era",
    "postal": "2909",
    "lat": 17.9163,
    "lon": 120.6641
  },
  {
    "country": "PH",
    "region": "Ilocos",
    "province": "Province of Ilocos Norte",
    "city": "Solsona",
    "postal": "2910",
    "lat": 18.0933,
    "lon": 120.7697
  },
  {
    "country": "PH",
    "region": "Ilocos",
    "province": "Province of Ilocos Norte",
    "city": "Carasi",
    "postal": "2911",
    "lat": 18.1989,
    "lon": 120.8683
  },
  {
    "country": "PH",
    "region": "Ilocos",
    "province": "Province of Ilocos Norte",
    "city": "Piddig",
    "postal": "2912",
    "lat": 18.1655,
    "lon": 120.7175
  },
  {
    "country": "PH",
    "region": "Ilocos",
    "province": "Province of Ilocos Norte",
    "city": "Dingras",
    "postal": "2913",
    "lat": 18.1032,
    "lon": 120.6967
  },
  {
    "country": "PH",
    "region": "Ilocos",
    "province": "Province of Ilocos Norte",
    "city": "Sarrat",
    "postal": "2914",
    "lat": 18.1574,
    "lon": 120.647
  },
  {
    "country": "PH",
    "region": "Ilocos",
    "province": "Province of Ilocos Norte",
    "city": "Vintar",
    "postal": "2915",
    "lat": 18.2284,
    "lon": 120.6475
  },
  {
    "country": "PH",
    "region": "Ilocos",
    "province": "Province of Ilocos Norte",
    "city": "Bacarra",
    "postal": "2916",
    "lat": 18.2529,
    "lon": 120.6125
  },
  {
    "country": "PH",
    "region": "Ilocos",
    "province": "Province of Ilocos Norte",
    "city": "Pasuquin",
    "postal": "2917",
    "lat": 18.3328,
    "lon": 120.6177
  },
  {
    "country": "PH",
    "region": "Ilocos",
    "province": "Province of Ilocos Norte",
    "city": "Burgos",
    "postal": "2918",
    "lat": 18.5166,
    "lon": 120.6449
  },
  {
    "country": "PH",
    "region": "Ilocos",
    "province": "Province of Ilocos Norte",
    "city": "Pagudpud",
    "postal": "2919",
    "lat": 18.5616,
    "lon": 120.7868
  },
  {
    "country": "PH",
    "region": "Ilocos",
    "province": "Province of Ilocos Norte",
    "city": "Bangui",
    "postal": "2920",
    "lat": 18.5376,
    "lon": 120.7671
  },
  {
    "country": "PH",
    "region": "Ilocos",
    "province": "Province of Ilocos Norte",
    "city": "Dumalneg",
    "postal": "2921",
    "lat": 18.4947,
    "lon": 120.8619
  },
  {
    "country": "PH",
    "region": "Ilocos",
    "province": "Province of Ilocos Norte",
    "city": "Adams",
    "postal": "2922",
    "lat": 18.4667,
    "lon": 120.9
  },
  {
    "country": "PH",
    "region": "Ilocos",
    "province": "Province of Ilocos Sur",
    "city": "Vigan",
    "postal": "2700",
    "lat": 17.5747,
    "lon": 120.3869
  },
  {
    "country": "PH",
    "region": "Ilocos",
    "province": "Province of Ilocos Sur",
    "city": "Santa Catalina",
    "postal": "2701",
    "lat": 17.5967,
    "lon": 120.3592
  },
  {
    "country": "PH",
    "region": "Ilocos",
    "province": "Province of Ilocos Sur",
    "city": "Caoayan",
    "postal": "2702",
    "lat": 17.5619,
    "lon": 120.3975
  },
  {
    "country": "PH",
    "region": "Ilocos",
    "province": "Province of Ilocos Sur",
    "city": "Santa",
    "postal": "2703",
    "lat": 17.486,
    "lon": 120.4348
  },
  {
    "country": "PH",
    "region": "Ilocos",
    "province": "Province of Ilocos Sur",
    "city": "Narvacan",
    "postal": "2704",
    "lat": 17.4175,
    "lon": 120.4753
  },
  {
    "country": "PH",
    "region": "Ilocos",
    "province": "Province of Ilocos Sur",
    "city": "Santa Maria",
    "postal": "2705",
    "lat": 17.3665,
    "lon": 120.4808
  },
  {
    "country": "PH",
    "region": "Ilocos",
    "province": "Province of Ilocos Sur",
    "city": "San Esteban",
    "postal": "2706",
    "lat": 17.3299,
    "lon": 120.4451
  },
  {
    "country": "PH",
    "region": "Ilocos",
    "province": "Province of Ilocos Sur",
    "city": "Santiago",
    "postal": "2707",
    "lat": 17.2939,
    "lon": 120.4449
  },
  {
    "country": "PH",
    "region": "Ilocos",
    "province": "Province of Ilocos Sur",
    "city": "Banayoyo",
    "postal": "2708",
    "lat": 17.2333,
    "lon": 120.4833
  },
  {
    "country": "PH",
    "region": "Ilocos",
    "province": "Province of Ilocos Sur",
    "city": "Galimuyod",
    "postal": "2709",
    "lat": 17.1844,
    "lon": 120.4719
  },
  {
    "country": "PH",
    "region": "Ilocos",
    "province": "Province of Ilocos Sur",
    "city": "Candon",
    "postal": "2710",
    "lat": 17.1947,
    "lon": 120.4517
  },
  {
    "country": "PH",
    "region": "Ilocos",
    "province": "Province of Ilocos Sur",
    "city": "Salcedo (Baugen)",
    "postal": "2711",
    "lat": 17.0126,
    "lon": 120.5232
  },
  {
    "country": "PH",
    "region": "Ilocos",
    "province": "Province of Ilocos Sur",
    "city": "Santa Lucia",
    "postal": "2712",
    "lat": 17.1175,
    "lon": 120.4531
  },
  {
    "country": "PH",
    "region": "Ilocos",
    "province": "Province of Ilocos Sur",
    "city": "Santa Cruz",
    "postal": "2713",
    "lat": 17.0856,
    "lon": 120.4522
  },
  {
    "country": "PH",
    "region": "Ilocos",
    "province": "Province of Ilocos Sur",
    "city": "Tagudin",
    "postal": "2714",
    "lat": 16.9355,
    "lon": 120.4442
  },
  {
    "country": "PH",
    "region": "Ilocos",
    "province": "Province of Ilocos Sur",
    "city": "Suyo",
    "postal": "2715",
    "lat": 16.9762,
    "lon": 120.5254
  },
  {
    "country": "PH",
    "region": "Ilocos",
    "province": "Province of Ilocos Sur",
    "city": "Alilem",
    "postal": "2716",
    "lat": 16.8861,
    "lon": 120.5304
  },
  {
    "country": "PH",
    "region": "Ilocos",
    "province": "Province of Ilocos Sur",
    "city": "Sugpon",
    "postal": "2717",
    "lat": 16.8434,
    "lon": 120.5157
  },
  {
    "country": "PH",
    "region": "Ilocos",
    "province": "Province of Ilocos Sur",
    "city": "Cervantes",
    "postal": "2718",
    "lat": 16.9909,
    "lon": 120.7359
  },
  {
    "country": "PH",
    "region": "Ilocos",
    "province": "Province of Ilocos Sur",
    "city": "Sigay",
    "postal": "2719",
    "lat": 17.0833,
    "lon": 120.6
  },
  {
    "country": "PH",
    "region": "Ilocos",
    "province": "Province of Ilocos Sur",
    "city": "Gregorio del Pilar (Concepcion)",
    "postal": "2720",
    "lat": 17.4643,
    "lon": 120.4654
  },
  {
    "country": "PH",
    "region": "Ilocos",
    "province": "Province of Ilocos Sur",
    "city": "Quirino (Angkaki)",
    "postal": "2721",
    "lat": 17.4643,
    "lon": 120.4654
  },
  {
    "country": "PH",
    "region": "Ilocos",
    "province": "Province of Ilocos Sur",
    "city": "San Emilio",
    "postal": "2722",
    "lat": 17.2261,
    "lon": 120.6117
  },
  {
    "country": "PH",
    "region": "Ilocos",
    "province": "Province of Ilocos Sur",
    "city": "Lidlidda",
    "postal": "2723",
    "lat": 17.2693,
    "lon": 120.5213
  },
  {
    "country": "PH",
    "region": "Ilocos",
    "province": "Province of Ilocos Sur",
    "city": "Burgos",
    "postal": "2724",
    "lat": 17.3324,
    "lon": 120.4954
  },
  {
    "country": "PH",
    "region": "Ilocos",
    "province": "Province of Ilocos Sur",
    "city": "Nagbukel",
    "postal": "2725",
    "lat": 17.4471,
    "lon": 120.5247
  },
  {
    "country": "PH",
    "region": "Ilocos",
    "province": "Province of Ilocos Sur",
    "city": "San Vicente",
    "postal": "2726",
    "lat": 17.5969,
    "lon": 120.3736
  },
  {
    "country": "PH",
    "region": "Ilocos",
    "province": "Province of Ilocos Sur",
    "city": "Bantay",
    "postal": "2727",
    "lat": 17.5847,
    "lon": 120.3892
  },
  {
    "country": "PH",
    "region": "Ilocos",
    "province": "Province of Ilocos Sur",
    "city": "San Ildefonso",
    "postal": "2728",
    "lat": 17.6222,
    "lon": 120.3967
  },
  {
    "country": "PH",
    "region": "Ilocos",
    "province": "Province of Ilocos Sur",
    "city": "Santo Domingo",
    "postal": "2729",
    "lat": 17.6353,
    "lon": 120.4108
  },
  {
    "country": "PH",
    "region": "Ilocos",
    "province": "Province of Ilocos Sur",
    "city": "Magsingal",
    "postal": "2730",
    "lat": 17.685,
    "lon": 120.4244
  },
  {
    "country": "PH",
    "region": "Ilocos",
    "province": "Province of Ilocos Sur",
    "city": "San Juan (Lapog)",
    "postal": "2731",
    "lat": 17.7815,
    "lon": 120.4468
  },
  {
    "country": "PH",
    "region": "Ilocos",
    "province": "Province of Ilocos Sur",
    "city": "Cabugao",
    "postal": "2732",
    "lat": 17.7931,
    "lon": 120.4578
  },
  {
    "country": "PH",
    "region": "Ilocos",
    "province": "Province of Ilocos Sur",
    "city": "Sinait",
    "postal": "2733",
    "lat": 17.8664,
    "lon": 120.4583
  },
  {
    "country": "PH",
    "region": "Ilocos",
    "province": "Province of La Union",
    "city": "San Fernando City",
    "postal": "2500",
    "lat": 16.6159,
    "lon": 120.3166
  },
  {
    "country": "PH",
    "region": "Ilocos",
    "province": "Province of La Union",
    "city": "Bauang",
    "postal": "2501",
    "lat": 16.5308,
    "lon": 120.3331
  },
  {
    "country": "PH",
    "region": "Ilocos",
    "province": "Province of La Union",
    "city": "Caba",
    "postal": "2502",
    "lat": 16.4316,
    "lon": 120.3446
  },
  {
    "country": "PH",
    "region": "Ilocos",
    "province": "Province of La Union",
    "city": "Aringay",
    "postal": "2503",
    "lat": 16.394,
    "lon": 120.3545
  },
  {
    "country": "PH",
    "region": "Ilocos",
    "province": "Province of La Union",
    "city": "Agoo",
    "postal": "2504",
    "lat": 16.3228,
    "lon": 120.3666
  },
  {
    "country": "PH",
    "region": "Ilocos",
    "province": "Province of La Union",
    "city": "Santo Tomas",
    "postal": "2505",
    "lat": 16.2798,
    "lon": 120.3792
  },
  {
    "country": "PH",
    "region": "Ilocos",
    "province": "Province of La Union",
    "city": "Rosario",
    "postal": "2506",
    "lat": 16.2304,
    "lon": 120.4863
  },
  {
    "country": "PH",
    "region": "Ilocos",
    "province": "Province of La Union",
    "city": "Damortis",
    "postal": "2507",
    "lat": 16.2405,
    "lon": 120.4056
  },
  {
    "country": "PH",
    "region": "Ilocos",
    "province": "Province of La Union",
    "city": "Pugo",
    "postal": "2508",
    "lat": 16.3221,
    "lon": 120.467
  },
  {
    "country": "PH",
    "region": "Ilocos",
    "province": "Province of La Union",
    "city": "Tubao",
    "postal": "2509",
    "lat": 16.3482,
    "lon": 120.4122
  },
  {
    "country": "PH",
    "region": "Ilocos",
    "province": "Province of La Union",
    "city": "Burgos",
    "postal": "2510",
    "lat": 16.5186,
    "lon": 120.4628
  },
  {
    "country": "PH",
    "region": "Ilocos",
    "province": "Province of La Union",
    "city": "Naguilian",
    "postal": "2511",
    "lat": 16.5339,
    "lon": 120.3967
  },
  {
    "country": "PH",
    "region": "Ilocos",
    "province": "Province of La Union",
    "city": "Bagulin",
    "postal": "2512",
    "lat": 16.6083,
    "lon": 120.4394
  },
  {
    "country": "PH",
    "region": "Ilocos",
    "province": "Province of La Union",
    "city": "San Gabriel",
    "postal": "2513",
    "lat": 16.6756,
    "lon": 120.4031
  },
  {
    "country": "PH",
    "region": "Ilocos",
    "province": "Province of La Union",
    "city": "San Juan",
    "postal": "2514",
    "lat": 16.6686,
    "lon": 120.3414
  },
  {
    "country": "PH",
    "region": "Ilocos",
    "province": "Province of La Union",
    "city": "Bacnotan",
    "postal": "2515",
    "lat": 16.7222,
    "lon": 120.3525
  },
  {
    "country": "PH",
    "region": "Ilocos",
    "province": "Province of La Union",
    "city": "Santol",
    "postal": "2516",
    "lat": 16.772,
    "lon": 120.4604
  },
  {
    "country": "PH",
    "region": "Ilocos",
    "province": "Province of La Union",
    "city": "Balaoan",
    "postal": "2517",
    "lat": 16.8219,
    "lon": 120.4045
  },
  {
    "country": "PH",
    "region": "Ilocos",
    "province": "Province of La Union",
    "city": "Luna",
    "postal": "2518",
    "lat": 16.8528,
    "lon": 120.3761
  },
  {
    "country": "PH",
    "region": "Ilocos",
    "province": "Province of La Union",
    "city": "Bangar",
    "postal": "2519",
    "lat": 16.8936,
    "lon": 120.4243
  },
  {
    "country": "PH",
    "region": "Ilocos",
    "province": "Province of La Union",
    "city": "Sudipen",
    "postal": "2520",
    "lat": 16.9056,
    "lon": 120.4617
  },
  {
    "country": "PH",
    "region": "Ilocos",
    "province": "Province of Pangasinan",
    "city": "Dagupan City",
    "postal": "2400",
    "lat": 16.0431,
    "lon": 120.3333
  },
  {
    "country": "PH",
    "region": "Ilocos",
    "province": "Province of Pangasinan",
    "city": "Lingayen",
    "postal": "2401",
    "lat": 16.0218,
    "lon": 120.2319
  },
  {
    "country": "PH",
    "region": "Ilocos",
    "province": "Province of Pangasinan",
    "city": "Labrador",
    "postal": "2402",
    "lat": 16.0281,
    "lon": 120.1442
  },
  {
    "country": "PH",
    "region": "Ilocos",
    "province": "Province of Pangasinan",
    "city": "Sual",
    "postal": "2403",
    "lat": 16.0668,
    "lon": 120.0941
  },
  {
    "country": "PH",
    "region": "Ilocos",
    "province": "Province of Pangasinan",
    "city": "Alaminos",
    "postal": "2404",
    "lat": 16.1561,
    "lon": 119.9811
  },
  {
    "country": "PH",
    "region": "Ilocos",
    "province": "Province of Pangasinan",
    "city": "Anda",
    "postal": "2405",
    "lat": 16.2892,
    "lon": 119.95
  },
  {
    "country": "PH",
    "region": "Ilocos",
    "province": "Province of Pangasinan",
    "city": "Bolinao",
    "postal": "2406",
    "lat": 16.3883,
    "lon": 119.8923
  },
  {
    "country": "PH",
    "region": "Ilocos",
    "province": "Province of Pangasinan",
    "city": "Bani",
    "postal": "2407",
    "lat": 15.9027,
    "lon": 120.2678
  },
  {
    "country": "PH",
    "region": "Ilocos",
    "province": "Province of Pangasinan",
    "city": "Agno",
    "postal": "2408",
    "lat": 16.1161,
    "lon": 119.7993
  },
  {
    "country": "PH",
    "region": "Ilocos",
    "province": "Province of Pangasinan",
    "city": "Mabini",
    "postal": "2409",
    "lat": 16.0699,
    "lon": 119.9391
  },
  {
    "country": "PH",
    "region": "Ilocos",
    "province": "Province of Pangasinan",
    "city": "Burgos",
    "postal": "2410",
    "lat": 15.809,
    "lon": 120.4674
  },
  {
    "country": "PH",
    "region": "Ilocos",
    "province": "Province of Pangasinan",
    "city": "Dasol",
    "postal": "2411",
    "lat": 15.9902,
    "lon": 119.8828
  },
  {
    "country": "PH",
    "region": "Ilocos",
    "province": "Province of Pangasinan",
    "city": "Infanta",
    "postal": "2412",
    "lat": 15.8264,
    "lon": 119.9077
  },
  {
    "country": "PH",
    "region": "Ilocos",
    "province": "Province of Pangasinan",
    "city": "Mangatarem",
    "postal": "2413",
    "lat": 15.7874,
    "lon": 120.2921
  },
  {
    "country": "PH",
    "region": "Ilocos",
    "province": "Province of Pangasinan",
    "city": "Urbiztondo",
    "postal": "2414",
    "lat": 15.8227,
    "lon": 120.3295
  },
  {
    "country": "PH",
    "region": "Ilocos",
    "province": "Province of Pangasinan",
    "city": "Aguilar",
    "postal": "2415",
    "lat": 15.8884,
    "lon": 120.2378
  },
  {
    "country": "PH",
    "region": "Ilocos",
    "province": "Province of Pangasinan",
    "city": "Bugallon",
    "postal": "2416",
    "lat": 15.9528,
    "lon": 120.2155
  },
  {
    "country": "PH",
    "region": "Ilocos",
    "province": "Province of Pangasinan",
    "city": "Binmaley",
    "postal": "2417",
    "lat": 16.0323,
    "lon": 120.269
  },
  {
    "country": "PH",
    "region": "Ilocos",
    "province": "Province of Pangasinan",
    "city": "Calasiao",
    "postal": "2418",
    "lat": 16.0111,
    "lon": 120.36
  },
  {
    "country": "PH",
    "region": "Ilocos",
    "province": "Province of Pangasinan",
    "city": "Santa Barbara",
    "postal": "2419",
    "lat": 16.0009,
    "lon": 120.4023
  },
  {
    "country": "PH",
    "region": "Ilocos",
    "province": "Province of Pangasinan",
    "city": "San Carlos City",
    "postal": "2420",
    "lat": 15.9294,
    "lon": 120.3486
  },
  {
    "country": "PH",
    "region": "Ilocos",
    "province": "Province of Pangasinan",
    "city": "Malasiqui",
    "postal": "2421",
    "lat": 15.9201,
    "lon": 120.414
  },
  {
    "country": "PH",
    "region": "Ilocos",
    "province": "Province of Pangasinan",
    "city": "Basista",
    "postal": "2422",
    "lat": 15.8524,
    "lon": 120.3976
  },
  {
    "country": "PH",
    "region": "Ilocos",
    "province": "Province of Pangasinan",
    "city": "Bayambang",
    "postal": "2423",
    "lat": 15.8127,
    "lon": 120.4557
  },
  {
    "country": "PH",
    "region": "Ilocos",
    "province": "Province of Pangasinan",
    "city": "Bautista",
    "postal": "2424",
    "lat": 15.7836,
    "lon": 120.4985
  },
  {
    "country": "PH",
    "region": "Ilocos",
    "province": "Province of Pangasinan",
    "city": "Alcala",
    "postal": "2425",
    "lat": 15.8472,
    "lon": 120.5242
  },
  {
    "country": "PH",
    "region": "Ilocos",
    "province": "Province of Pangasinan",
    "city": "SantoTomas",
    "postal": "2426",
    "lat": 15.8942,
    "lon": 120.4725
  },
  {
    "country": "PH",
    "region": "Ilocos",
    "province": "Province of Pangasinan",
    "city": "Villasis",
    "postal": "2427",
    "lat": 15.9017,
    "lon": 120.5883
  },
  {
    "country": "PH",
    "region": "Ilocos",
    "province": "Province of Pangasinan",
    "city": "Urdaneta",
    "postal": "2428",
    "lat": 15.9761,
    "lon": 120.5711
  },
  {
    "country": "PH",
    "region": "Ilocos",
    "province": "Province of Pangasinan",
    "city": "Mapandan",
    "postal": "2429",
    "lat": 16.0248,
    "lon": 120.4547
  },
  {
    "country": "PH",
    "region": "Ilocos",
    "province": "Province of Pangasinan",
    "city": "Manaoag",
    "postal": "2430",
    "lat": 16.0438,
    "lon": 120.4861
  },
  {
    "country": "PH",
    "region": "Ilocos",
    "province": "Province of Pangasinan",
    "city": "San Jacinto",
    "postal": "2431",
    "lat": 16.0726,
    "lon": 120.4383
  },
  {
    "country": "PH",
    "region": "Ilocos",
    "province": "Province of Pangasinan",
    "city": "Mangaldan",
    "postal": "2432",
    "lat": 16.07,
    "lon": 120.4025
  },
  {
    "country": "PH",
    "region": "Ilocos",
    "province": "Province of Pangasinan",
    "city": "San Fabian",
    "postal": "2433",
    "lat": 16.1231,
    "lon": 120.4056
  },
  {
    "country": "PH",
    "region": "Ilocos",
    "province": "Province of Pangasinan",
    "city": "Sison",
    "postal": "2434",
    "lat": 16.1739,
    "lon": 120.5153
  },
  {
    "country": "PH",
    "region": "Ilocos",
    "province": "Province of Pangasinan",
    "city": "Pozorrubio",
    "postal": "2435",
    "lat": 16.111,
    "lon": 120.544
  },
  {
    "country": "PH",
    "region": "Ilocos",
    "province": "Province of Pangasinan",
    "city": "Binalonan",
    "postal": "2436",
    "lat": 16.0503,
    "lon": 120.5926
  },
  {
    "country": "PH",
    "region": "Ilocos",
    "province": "Province of Pangasinan",
    "city": "Laoac",
    "postal": "2437",
    "lat": 16.0529,
    "lon": 120.5384
  },
  {
    "country": "PH",
    "region": "Ilocos",
    "province": "Province of Pangasinan",
    "city": "San Manuel",
    "postal": "2438",
    "lat": 16.0647,
    "lon": 120.6687
  },
  {
    "country": "PH",
    "region": "Ilocos",
    "province": "Province of Pangasinan",
    "city": "Asingan",
    "postal": "2439",
    "lat": 16.0051,
    "lon": 120.6695
  },
  {
    "country": "PH",
    "region": "Ilocos",
    "province": "Province of Pangasinan",
    "city": "Santa Maria",
    "postal": "2440",
    "lat": 15.9436,
    "lon": 120.7155
  },
  {
    "country": "PH",
    "region": "Ilocos",
    "province": "Province of Pangasinan",
    "city": "Rosales",
    "postal": "2441",
    "lat": 15.8944,
    "lon": 120.6328
  },
  {
    "country": "PH",
    "region": "Ilocos",
    "province": "Province of Pangasinan",
    "city": "Balungao",
    "postal": "2442",
    "lat": 15.8981,
    "lon": 120.6883
  },
  {
    "country": "PH",
    "region": "Ilocos",
    "province": "Province of Pangasinan",
    "city": "Umingan",
    "postal": "2443",
    "lat": 15.9002,
    "lon": 120.7984
  },
  {
    "country": "PH",
    "region": "Ilocos",
    "province": "Province of Pangasinan",
    "city": "San Quintin",
    "postal": "2444",
    "lat": 15.9854,
    "lon": 120.8132
  },
  {
    "country": "PH",
    "region": "Ilocos",
    "province": "Province of Pangasinan",
    "city": "Tayug",
    "postal": "2445",
    "lat": 16.0274,
    "lon": 120.7434
  },
  {
    "country": "PH",
    "region": "Ilocos",
    "province": "Province of Pangasinan",
    "city": "Natividad",
    "postal": "2446",
    "lat": 16.0443,
    "lon": 120.7987
  },
  {
    "country": "PH",
    "region": "Ilocos",
    "province": "Province of Pangasinan",
    "city": "San Nicolas",
    "postal": "2447",
    "lat": 15.9167,
    "lon": 120.65
  },
  {
    "country": "PH",
    "region": "Cagayan Valley",
    "province": "Province of Batanes",
    "city": "Basco",
    "postal": "3900",
    "lat": 20.4486,
    "lon": 121.9702
  },
  {
    "country": "PH",
    "region": "Cagayan Valley",
    "province": "Province of Batanes",
    "city": "Mahatao",
    "postal": "3901",
    "lat": 20.4159,
    "lon": 121.9471
  },
  {
    "country": "PH",
    "region": "Cagayan Valley",
    "province": "Province of Batanes",
    "city": "Ivana",
    "postal": "3902",
    "lat": 20.3701,
    "lon": 121.9146
  },
  {
    "country": "PH",
    "region": "Cagayan Valley",
    "province": "Province of Batanes",
    "city": "Uyugan",
    "postal": "3903",
    "lat": 20.3505,
    "lon": 121.9378
  },
  {
    "country": "PH",
    "region": "Cagayan Valley",
    "province": "Province of Batanes",
    "city": "Sabtang",
    "postal": "3904",
    "lat": 20.3357,
    "lon": 121.8716
  },
  {
    "country": "PH",
    "region": "Cagayan Valley",
    "province": "Province of Batanes",
    "city": "Itbayat",
    "postal": "3905",
    "lat": 20.7873,
    "lon": 121.8418
  },
  {
    "country": "PH",
    "region": "Cagayan Valley",
    "province": "Province of Cagayan",
    "city": "Tuguegarao City",
    "postal": "3500",
    "lat": 17.6158,
    "lon": 121.7228
  },
  {
    "country": "PH",
    "region": "Cagayan Valley",
    "province": "Province of Cagayan",
    "city": "Enrile",
    "postal": "3501",
    "lat": 17.5596,
    "lon": 121.6974
  },
  {
    "country": "PH",
    "region": "Cagayan Valley",
    "province": "Province of Cagayan",
    "city": "Peñablanca",
    "postal": "3502",
    "lat": 17.6334,
    "lon": 121.7812
  },
  {
    "country": "PH",
    "region": "Cagayan Valley",
    "province": "Province of Cagayan",
    "city": "Solana",
    "postal": "3503",
    "lat": 17.6528,
    "lon": 121.691
  },
  {
    "country": "PH",
    "region": "Cagayan Valley",
    "province": "Province of Cagayan",
    "city": "Iguig",
    "postal": "3504",
    "lat": 17.7506,
    "lon": 121.7364
  },
  {
    "country": "PH",
    "region": "Cagayan Valley",
    "province": "Province of Cagayan",
    "city": "Amulung",
    "postal": "3505",
    "lat": 17.8357,
    "lon": 121.7237
  },
  {
    "country": "PH",
    "region": "Cagayan Valley",
    "province": "Province of Cagayan",
    "city": "Baggao",
    "postal": "3506",
    "lat": 17.9352,
    "lon": 121.7716
  },
  {
    "country": "PH",
    "region": "Cagayan Valley",
    "province": "Province of Cagayan",
    "city": "Alcala",
    "postal": "3507",
    "lat": 17.9021,
    "lon": 121.656
  },
  {
    "country": "PH",
    "region": "Cagayan Valley",
    "province": "Province of Cagayan",
    "city": "Gattaran",
    "postal": "3508",
    "lat": 18.0616,
    "lon": 121.6441
  },
  {
    "country": "PH",
    "region": "Cagayan Valley",
    "province": "Province of Cagayan",
    "city": "Lal-lo",
    "postal": "3509",
    "lat": 18.202,
    "lon": 121.6609
  },
  {
    "country": "PH",
    "region": "Cagayan Valley",
    "province": "Province of Cagayan",
    "city": "Camalaniugan",
    "postal": "3510",
    "lat": 18.274,
    "lon": 121.6748
  },
  {
    "country": "PH",
    "region": "Cagayan Valley",
    "province": "Province of Cagayan",
    "city": "Buguey",
    "postal": "3511",
    "lat": 18.2882,
    "lon": 121.8331
  },
  {
    "country": "PH",
    "region": "Cagayan Valley",
    "province": "Province of Cagayan",
    "city": "Sta. Teresita",
    "postal": "3512",
    "lat": 18.2472,
    "lon": 121.9127
  },
  {
    "country": "PH",
    "region": "Cagayan Valley",
    "province": "Province of Cagayan",
    "city": "Gonzaga",
    "postal": "3513",
    "lat": 18.2594,
    "lon": 121.995
  },
  {
    "country": "PH",
    "region": "Cagayan Valley",
    "province": "Province of Cagayan",
    "city": "Sta. Ana",
    "postal": "3514",
    "lat": 18.0943,
    "lon": 121.7607
  },
  {
    "country": "PH",
    "region": "Cagayan Valley",
    "province": "Province of Cagayan",
    "city": "Aparri",
    "postal": "3515",
    "lat": 18.3566,
    "lon": 121.6406
  },
  {
    "country": "PH",
    "region": "Cagayan Valley",
    "province": "Province of Cagayan",
    "city": "Ballesteros",
    "postal": "3516",
    "lat": 18.4126,
    "lon": 121.5152
  },
  {
    "country": "PH",
    "region": "Cagayan Valley",
    "province": "Province of Cagayan",
    "city": "Abulug",
    "postal": "3517",
    "lat": 18.4453,
    "lon": 121.4533
  },
  {
    "country": "PH",
    "region": "Cagayan Valley",
    "province": "Province of Cagayan",
    "city": "Sanchez-Mira",
    "postal": "3518",
    "lat": 18.5616,
    "lon": 121.2319
  },
  {
    "country": "PH",
    "region": "Cagayan Valley",
    "province": "Province of Cagayan",
    "city": "Claveria",
    "postal": "3519",
    "lat": 18.6074,
    "lon": 121.0832
  },
  {
    "country": "PH",
    "region": "Cagayan Valley",
    "province": "Province of Cagayan",
    "city": "Calayan",
    "postal": "3520",
    "lat": 18.0732,
    "lon": 121.4185
  },
  {
    "country": "PH",
    "region": "Cagayan Valley",
    "province": "Province of Cagayan",
    "city": "Santa Praxedes",
    "postal": "3521",
    "lat": 18.5667,
    "lon": 121.0
  },
  {
    "country": "PH",
    "region": "Cagayan Valley",
    "province": "Province of Cagayan",
    "city": "Pamplona",
    "postal": "3522",
    "lat": 18.4664,
    "lon": 121.3411
  },
  {
    "country": "PH",
    "region": "Cagayan Valley",
    "province": "Province of Cagayan",
    "city": "Allacapan",
    "postal": "3523",
    "lat": 18.226,
    "lon": 121.5562
  },
  {
    "country": "PH",
    "region": "Cagayan Valley",
    "province": "Province of Cagayan",
    "city": "Lasam",
    "postal": "3524",
    "lat": 18.0652,
    "lon": 121.6007
  },
  {
    "country": "PH",
    "region": "Cagayan Valley",
    "province": "Province of Cagayan",
    "city": "Santo Niño",
    "postal": "3525",
    "lat": 17.8861,
    "lon": 121.5691
  },
  {
    "country": "PH",
    "region": "Cagayan Valley",
    "province": "Province of Cagayan",
    "city": "Rizal",
    "postal": "3526",
    "lat": 17.8486,
    "lon": 121.3466
  },
  {
    "country": "PH",
    "region": "Cagayan Valley",
    "province": "Province of Cagayan",
    "city": "Piat",
    "postal": "3527",
    "lat": 17.7905,
    "lon": 121.478
  },
  {
    "country": "PH",
    "region": "Cagayan Valley",
    "province": "Province of Cagayan",
    "city": "Tuao",
    "postal": "3528",
    "lat": 17.7364,
    "lon": 121.4563
  },
  {
    "country": "PH",
    "region": "Cagayan Valley",
    "province": "Province of Isabela",
    "city": "City of Ilagan",
    "postal": "3300",
    "lat": 16.875,
    "lon": 121.7643
  },
  {
    "country": "PH",
    "region": "Cagayan Valley",
    "province": "Province of Isabela",
    "city": "Gamu",
    "postal": "3301",
    "lat": 17.0497,
    "lon": 121.836
  },
  {
    "country": "PH",
    "region": "Cagayan Valley",
    "province": "Province of Isabela",
    "city": "Naguillan",
    "postal": "3302",
    "lat": 16.9874,
    "lon": 121.9613
  },
  {
    "country": "PH",
    "region": "Cagayan Valley",
    "province": "Province of Isabela",
    "city": "Reina Mercedes",
    "postal": "3303",
    "lat": 17.0018,
    "lon": 121.7863
  },
  {
    "country": "PH",
    "region": "Cagayan Valley",
    "province": "Province of Isabela",
    "city": "Luna",
    "postal": "3304",
    "lat": 17.0333,
    "lon": 121.8333
  },
  {
    "country": "PH",
    "region": "Cagayan Valley",
    "province": "Province of Isabela",
    "city": "City of Cauayan",
    "postal": "3305",
    "lat": 16.875,
    "lon": 121.7643
  },
  {
    "country": "PH",
    "region": "Cagayan Valley",
    "province": "Province of Isabela",
    "city": "Alicia",
    "postal": "3306",
    "lat": 16.7794,
    "lon": 121.6973
  },
  {
    "country": "PH",
    "region": "Cagayan Valley",
    "province": "Province of Isabela",
    "city": "Angadanan",
    "postal": "3307",
    "lat": 16.7553,
    "lon": 121.7483
  },
  {
    "country": "PH",
    "region": "Cagayan Valley",
    "province": "Province of Isabela",
    "city": "San Guillermo",
    "postal": "3308",
    "lat": 16.8003,
    "lon": 121.7722
  },
  {
    "country": "PH",
    "region": "Cagayan Valley",
    "province": "Province of Isabela",
    "city": "Echague",
    "postal": "3309",
    "lat": 16.7051,
    "lon": 121.6763
  },
  {
    "country": "PH",
    "region": "Cagayan Valley",
    "province": "Province of Isabela",
    "city": "San Isidro",
    "postal": "3310",
    "lat": 16.8709,
    "lon": 121.7683
  },
  {
    "country": "PH",
    "region": "Cagayan Valley",
    "province": "Province of Isabela",
    "city": "Santiago CIty",
    "postal": "3311",
    "lat": 16.7891,
    "lon": 121.6342
  },
  {
    "country": "PH",
    "region": "Cagayan Valley",
    "province": "Province of Isabela",
    "city": "Cordon",
    "postal": "3312",
    "lat": 16.6744,
    "lon": 121.4658
  },
  {
    "country": "PH",
    "region": "Cagayan Valley",
    "province": "Province of Isabela",
    "city": "Jones",
    "postal": "3313",
    "lat": 16.5571,
    "lon": 121.7029
  },
  {
    "country": "PH",
    "region": "Cagayan Valley",
    "province": "Province of Isabela",
    "city": "San Agustin",
    "postal": "3314",
    "lat": 16.5178,
    "lon": 121.7454
  },
  {
    "country": "PH",
    "region": "Cagayan Valley",
    "province": "Province of Isabela",
    "city": "Cabatuan",
    "postal": "3315",
    "lat": 16.9566,
    "lon": 121.6685
  },
  {
    "country": "PH",
    "region": "Cagayan Valley",
    "province": "Province of Isabela",
    "city": "Aurora",
    "postal": "3316",
    "lat": 16.9906,
    "lon": 121.6366
  },
  {
    "country": "PH",
    "region": "Cagayan Valley",
    "province": "Province of Isabela",
    "city": "San Manuel",
    "postal": "3317",
    "lat": 16.8687,
    "lon": 121.5981
  },
  {
    "country": "PH",
    "region": "Cagayan Valley",
    "province": "Province of Isabela",
    "city": "San Mateo",
    "postal": "3318",
    "lat": 16.8821,
    "lon": 121.5869
  },
  {
    "country": "PH",
    "region": "Cagayan Valley",
    "province": "Province of Isabela",
    "city": "Ramon",
    "postal": "3319",
    "lat": 16.7842,
    "lon": 121.535
  },
  {
    "country": "PH",
    "region": "Cagayan Valley",
    "province": "Province of Isabela",
    "city": "Roxas",
    "postal": "3320",
    "lat": 17.1189,
    "lon": 121.6201
  },
  {
    "country": "PH",
    "region": "Cagayan Valley",
    "province": "Province of Isabela",
    "city": "Quirino",
    "postal": "3321",
    "lat": 17.0282,
    "lon": 121.8297
  },
  {
    "country": "PH",
    "region": "Cagayan Valley",
    "province": "Province of Isabela",
    "city": "Burgos",
    "postal": "3322",
    "lat": 17.0891,
    "lon": 121.7025
  },
  {
    "country": "PH",
    "region": "Cagayan Valley",
    "province": "Province of Isabela",
    "city": "Mallig",
    "postal": "3323",
    "lat": 17.2128,
    "lon": 121.6107
  },
  {
    "country": "PH",
    "region": "Cagayan Valley",
    "province": "Province of Isabela",
    "city": "Quezon",
    "postal": "3324",
    "lat": 17.313,
    "lon": 121.6065
  },
  {
    "country": "PH",
    "region": "Cagayan Valley",
    "province": "Province of Isabela",
    "city": "Tumauini",
    "postal": "3325",
    "lat": 17.2766,
    "lon": 121.8085
  },
  {
    "country": "PH",
    "region": "Cagayan Valley",
    "province": "Province of Isabela",
    "city": "Delfin Albano",
    "postal": "3326",
    "lat": 17.3081,
    "lon": 121.7775
  },
  {
    "country": "PH",
    "region": "Cagayan Valley",
    "province": "Province of Isabela",
    "city": "Sto. Tomas",
    "postal": "3327",
    "lat": 17.2208,
    "lon": 121.7363
  },
  {
    "country": "PH",
    "region": "Cagayan Valley",
    "province": "Province of Isabela",
    "city": "Cabagan",
    "postal": "3328",
    "lat": 17.4278,
    "lon": 121.7695
  },
  {
    "country": "PH",
    "region": "Cagayan Valley",
    "province": "Province of Isabela",
    "city": "San Pablo",
    "postal": "3329",
    "lat": 17.2125,
    "lon": 121.9015
  },
  {
    "country": "PH",
    "region": "Cagayan Valley",
    "province": "Province of Isabela",
    "city": "Sta. Maria",
    "postal": "3330",
    "lat": 16.9879,
    "lon": 122.182
  },
  {
    "country": "PH",
    "region": "Cagayan Valley",
    "province": "Province of Isabela",
    "city": "Benito Soliven",
    "postal": "3331",
    "lat": 16.9815,
    "lon": 121.9599
  },
  {
    "country": "PH",
    "region": "Cagayan Valley",
    "province": "Province of Isabela",
    "city": "San Mariano",
    "postal": "3332",
    "lat": 16.9826,
    "lon": 122.014
  },
  {
    "country": "PH",
    "region": "Cagayan Valley",
    "province": "Province of Isabela",
    "city": "Maconacon",
    "postal": "3333",
    "lat": 17.3875,
    "lon": 122.2415
  },
  {
    "country": "PH",
    "region": "Cagayan Valley",
    "province": "Province of Isabela",
    "city": "Palanan",
    "postal": "3334",
    "lat": 17.0606,
    "lon": 122.43
  },
  {
    "country": "PH",
    "region": "Cagayan Valley",
    "province": "Province of Isabela",
    "city": "Divilacan",
    "postal": "3335",
    "lat": 16.9879,
    "lon": 122.182
  },
  {
    "country": "PH",
    "region": "Cagayan Valley",
    "province": "Province of Isabela",
    "city": "Dinapigue",
    "postal": "3336",
    "lat": 16.5273,
    "lon": 122.2645
  },
  {
    "country": "PH",
    "region": "Cagayan Valley",
    "province": "Province of Nueva Vizcaya",
    "city": "Bayombong",
    "postal": "3700",
    "lat": 16.4812,
    "lon": 121.1497
  },
  {
    "country": "PH",
    "region": "Cagayan Valley",
    "province": "Province of Nueva Vizcaya",
    "city": "Ambaguio",
    "postal": "3701",
    "lat": 16.5074,
    "lon": 121.0162
  },
  {
    "country": "PH",
    "region": "Cagayan Valley",
    "province": "Province of Nueva Vizcaya",
    "city": "Bambang",
    "postal": "3702",
    "lat": 16.3865,
    "lon": 121.1066
  },
  {
    "country": "PH",
    "region": "Cagayan Valley",
    "province": "Province of Nueva Vizcaya",
    "city": "Kasibu",
    "postal": "3703",
    "lat": 16.3167,
    "lon": 121.2965
  },
  {
    "country": "PH",
    "region": "Cagayan Valley",
    "province": "Province of Nueva Vizcaya",
    "city": "Aritao",
    "postal": "3704",
    "lat": 16.2979,
    "lon": 121.0345
  },
  {
    "country": "PH",
    "region": "Cagayan Valley",
    "province": "Province of Nueva Vizcaya",
    "city": "Sta. Fe",
    "postal": "3705",
    "lat": 16.3844,
    "lon": 121.0964
  },
  {
    "country": "PH",
    "region": "Cagayan Valley",
    "province": "Province of Nueva Vizcaya",
    "city": "Dupax del Norte",
    "postal": "3706",
    "lat": 16.3079,
    "lon": 121.1062
  },
  {
    "country": "PH",
    "region": "Cagayan Valley",
    "province": "Province of Nueva Vizcaya",
    "city": "Dupax del Sur",
    "postal": "3707",
    "lat": 16.2838,
    "lon": 121.0896
  },
  {
    "country": "PH",
    "region": "Cagayan Valley",
    "province": "Province of Nueva Vizcaya",
    "city": "Kayapa",
    "postal": "3708",
    "lat": 16.3592,
    "lon": 120.8867
  },
  {
    "country": "PH",
    "region": "Cagayan Valley",
    "province": "Province of Nueva Vizcaya",
    "city": "Solano",
    "postal": "3709",
    "lat": 16.5192,
    "lon": 121.1812
  },
  {
    "country": "PH",
    "region": "Cagayan Valley",
    "province": "Province of Nueva Vizcaya",
    "city": "Villaverde",
    "postal": "3710",
    "lat": 16.3832,
    "lon": 121.2803
  },
  {
    "country": "PH",
    "region": "Cagayan Valley",
    "province": "Province of Nueva Vizcaya",
    "city": "Bagabag",
    "postal": "3711",
    "lat": 16.5059,
    "lon": 121.1901
  },
  {
    "country": "PH",
    "region": "Cagayan Valley",
    "province": "Province of Nueva Vizcaya",
    "city": "Diadi",
    "postal": "3712",
    "lat": 16.7262,
    "lon": 121.3589
  },
  {
    "country": "PH",
    "region": "Cagayan Valley",
    "province": "Province of Nueva Vizcaya",
    "city": "Quezon",
    "postal": "3713",
    "lat": 16.5,
    "lon": 121.2667
  },
  {
    "country": "PH",
    "region": "Cagayan Valley",
    "province": "Province of Nueva Vizcaya",
    "city": "Alfonso Castañeda",
    "postal": "3714",
    "lat": 15.8006,
    "lon": 121.3054
  },
  {
    "country": "PH",
    "region": "Cagayan Valley",
    "province": "Province of Quirino",
    "city": "Cabarroguis",
    "postal": "3400",
    "lat": 16.5111,
    "lon": 121.5212
  },
  {
    "country": "PH",
    "region": "Cagayan Valley",
    "province": "Province of Quirino",
    "city": "Diffun",
    "postal": "3401",
    "lat": 16.59,
    "lon": 121.5057
  },
  {
    "country": "PH",
    "region": "Cagayan Valley",
    "province": "Province of Quirino",
    "city": "Saguday",
    "postal": "3402",
    "lat": 16.5428,
    "lon": 121.5638
  },
  {
    "country": "PH",
    "region": "Cagayan Valley",
    "province": "Province of Quirino",
    "city": "Aglipay",
    "postal": "3403",
    "lat": 16.4889,
    "lon": 121.645
  },
  {
    "country": "PH",
    "region": "Cagayan Valley",
    "province": "Province of Quirino",
    "city": "Maddela",
    "postal": "3404",
    "lat": 16.3414,
    "lon": 121.6849
  },
  {
    "country": "PH",
    "region": "Cagayan Valley",
    "province": "Province of Quirino",
    "city": "Nagtipunan",
    "postal": "3405",
    "lat": 16.2167,
    "lon": 121.6
  },
  {
    "country": "PH",
    "region": "Central Luzon",
    "province": "Province of Bataan",
    "city": "Balanga",
    "postal": "2100",
    "lat": 14.6761,
    "lon": 120.5361
  },
  {
    "country": "PH",
    "region": "Central Luzon",
    "province": "Province of Bataan",
    "city": "Pilar",
    "postal": "2101",
    "lat": 14.66,
    "lon": 120.5653
  },
  {
    "country": "PH",
    "region": "Central Luzon",
    "province": "Province of Bataan",
    "city": "Orion",
    "postal": "2102",
    "lat": 14.6206,
    "lon": 120.5817
  },
  {
    "country": "PH",
    "region": "Central Luzon",
    "province": "Province of Bataan",
    "city": "Limay",
    "postal": "2103",
    "lat": 14.5619,
    "lon": 120.5983
  },
  {
    "country": "PH",
    "region": "Central Luzon",
    "province": "Province of Bataan",
    "city": "Lamao",
    "postal": "2104",
    "lat": 14.5142,
    "lon": 120.5931
  },
  {
    "country": "PH",
    "region": "Central Luzon",
    "province": "Province of Bataan",
    "city": "Mariveles",
    "postal": "2105",
    "lat": 14.4338,
    "lon": 120.4857
  },
  {
    "country": "PH",
    "region": "Central Luzon",
    "province": "Province of Bataan",
    "city": "FAB (Freefort Area of  Bataan)",
    "postal": "2106",
    "lat": 14.5773,
    "lon": 120.5123
  },
  {
    "country": "PH",
    "region": "Central Luzon",
    "province": "Province of Bataan",
    "city": "Bagac",
    "postal": "2107",
    "lat": 14.5962,
    "lon": 120.3928
  },
  {
    "country": "PH",
    "region": "Central Luzon",
    "province": "Province of Bataan",
    "city": "Morong",
    "postal": "2108",
    "lat": 14.6789,
    "lon": 120.2661
  },
  {
    "country": "PH",
    "region": "Central Luzon",
    "province": "Province of Bataan",
    "city": "Cabcaben",
    "postal": "2109",
    "lat": 14.454,
    "lon": 120.5914
  },
  {
    "country": "PH",
    "region": "Central Luzon",
    "province": "Province of Bataan",
    "city": "Dinalupihan",
    "postal": "2110",
    "lat": 14.8783,
    "lon": 120.4522
  },
  {
    "country": "PH",
    "region": "Central Luzon",
    "province": "Province of Bataan",
    "city": "Hermosa",
    "postal": "2111",
    "lat": 14.8314,
    "lon": 120.5081
  },
  {
    "country": "PH",
    "region": "Central Luzon",
    "province": "Province of Bataan",
    "city": "Orani",
    "postal": "2112",
    "lat": 14.8006,
    "lon": 120.5371
  },
  {
    "country": "PH",
    "region": "Central Luzon",
    "province": "Province of Bataan",
    "city": "Samal",
    "postal": "2113",
    "lat": 14.7678,
    "lon": 120.5431
  },
  {
    "country": "PH",
    "region": "Central Luzon",
    "province": "Province of Bataan",
    "city": "Abucay",
    "postal": "2114",
    "lat": 14.7335,
    "lon": 120.5336
  },
  {
    "country": "PH",
    "region": "Central Luzon",
    "province": "Province of Bulacan",
    "city": "Malolos",
    "postal": "3000",
    "lat": 14.8443,
    "lon": 120.8104
  },
  {
    "country": "PH",
    "region": "Central Luzon",
    "province": "Province of Bulacan",
    "city": "Paombong",
    "postal": "3001",
    "lat": 14.8311,
    "lon": 120.7892
  },
  {
    "country": "PH",
    "region": "Central Luzon",
    "province": "Province of Bulacan",
    "city": "Hagonoy",
    "postal": "3002",
    "lat": 14.8341,
    "lon": 120.7327
  },
  {
    "country": "PH",
    "region": "Central Luzon",
    "province": "Province of Bulacan",
    "city": "Calumpit",
    "postal": "3003",
    "lat": 14.9164,
    "lon": 120.7658
  },
  {
    "country": "PH",
    "region": "Central Luzon",
    "province": "Province of Bulacan",
    "city": "Plaridel",
    "postal": "3004",
    "lat": 14.8872,
    "lon": 120.8572
  },
  {
    "country": "PH",
    "region": "Central Luzon",
    "province": "Province of Bulacan",
    "city": "Pulilan",
    "postal": "3005",
    "lat": 14.9017,
    "lon": 120.8492
  },
  {
    "country": "PH",
    "region": "Central Luzon",
    "province": "Province of Bulacan",
    "city": "Baliuag",
    "postal": "3006",
    "lat": 14.9547,
    "lon": 120.8969
  },
  {
    "country": "PH",
    "region": "Central Luzon",
    "province": "Province of Bulacan",
    "city": "Bustos",
    "postal": "3007",
    "lat": 14.9581,
    "lon": 120.9178
  },
  {
    "country": "PH",
    "region": "Central Luzon",
    "province": "Province of Bulacan",
    "city": "San Rafael",
    "postal": "3008",
    "lat": 15.0298,
    "lon": 120.9262
  },
  {
    "country": "PH",
    "region": "Central Luzon",
    "province": "Province of Bulacan",
    "city": "Doña Remedios Trinidad",
    "postal": "3009",
    "lat": 14.9711,
    "lon": 121.0652
  },
  {
    "country": "PH",
    "region": "Central Luzon",
    "province": "Province of Bulacan",
    "city": "San Ildefonso",
    "postal": "3010",
    "lat": 15.0809,
    "lon": 120.941
  },
  {
    "country": "PH",
    "region": "Central Luzon",
    "province": "Province of Bulacan",
    "city": "San Miguel",
    "postal": "3011",
    "lat": 15.1423,
    "lon": 120.9757
  },
  {
    "country": "PH",
    "region": "Central Luzon",
    "province": "Province of Bulacan",
    "city": "Angat",
    "postal": "3012",
    "lat": 14.9285,
    "lon": 121.03
  },
  {
    "country": "PH",
    "region": "Central Luzon",
    "province": "Province of Bulacan",
    "city": "Norzagaray",
    "postal": "3013",
    "lat": 14.9109,
    "lon": 121.0493
  },
  {
    "country": "PH",
    "region": "Central Luzon",
    "province": "Province of Bulacan",
    "city": "Pandi",
    "postal": "3014",
    "lat": 14.865,
    "lon": 120.9572
  },
  {
    "country": "PH",
    "region": "Central Luzon",
    "province": "Province of Bulacan",
    "city": "Guiguinto",
    "postal": "3015",
    "lat": 14.8333,
    "lon": 120.8833
  },
  {
    "country": "PH",
    "region": "Central Luzon",
    "province": "Province of Bulacan",
    "city": "Balagtas",
    "postal": "3016",
    "lat": 14.8167,
    "lon": 120.8667
  },
  {
    "country": "PH",
    "region": "Central Luzon",
    "province": "Province of Bulacan",
    "city": "Bulacan",
    "postal": "3017",
    "lat": 14.7928,
    "lon": 120.8789
  },
  {
    "country": "PH",
    "region": "Central Luzon",
    "province": "Province of Bulacan",
    "city": "Bocaue",
    "postal": "3018",
    "lat": 14.7983,
    "lon": 120.9261
  },
  {
    "country": "PH",
    "region": "Central Luzon",
    "province": "Province of Bulacan",
    "city": "Marilao",
    "postal": "3019",
    "lat": 14.7578,
    "lon": 120.9483
  },
  {
    "country": "PH",
    "region": "Central Luzon",
    "province": "Province of Bulacan",
    "city": "Meycauayan",
    "postal": "3020",
    "lat": 14.7369,
    "lon": 120.9608
  },
  {
    "country": "PH",
    "region": "Central Luzon",
    "province": "Province of Bulacan",
    "city": "Obando",
    "postal": "3021",
    "lat": 14.7098,
    "lon": 120.9362
  },
  {
    "country": "PH",
    "region": "Central Luzon",
    "province": "Province of Bulacan",
    "city": "Sta. Maria",
    "postal": "3022",
    "lat": 14.8241,
    "lon": 120.9846
  },
  {
    "country": "PH",
    "region": "Central Luzon",
    "province": "Province of Bulacan",
    "city": "San Jose Del Monte",
    "postal": "3023",
    "lat": 14.8139,
    "lon": 121.0453
  },
  {
    "country": "PH",
    "region": "Central Luzon",
    "province": "Province of Bulacan",
    "city": "Sapang Palay",
    "postal": "3024",
    "lat": 14.827,
    "lon": 121.0451
  },
  {
    "country": "PH",
    "region": "Central Luzon",
    "province": "Province of Bulacan",
    "city": "Cruz na Daan",
    "postal": "3025",
    "lat": 15.033,
    "lon": 120.9358
  },
  {
    "country": "PH",
    "region": "Central Luzon",
    "province": "Province of Nueva Ecija",
    "city": "Cabanatuan City",
    "postal": "3100",
    "lat": 15.4859,
    "lon": 120.9665
  },
  {
    "country": "PH",
    "region": "Central Luzon",
    "province": "Province of Nueva Ecija",
    "city": "Sta. Rosa",
    "postal": "3101",
    "lat": 15.3407,
    "lon": 120.9247
  },
  {
    "country": "PH",
    "region": "Central Luzon",
    "province": "Province of Nueva Ecija",
    "city": "San Leonardo",
    "postal": "3102",
    "lat": 15.363,
    "lon": 120.9639
  },
  {
    "country": "PH",
    "region": "Central Luzon",
    "province": "Province of Nueva Ecija",
    "city": "Peñaranda",
    "postal": "3103",
    "lat": 15.3512,
    "lon": 121.0039
  },
  {
    "country": "PH",
    "region": "Central Luzon",
    "province": "Province of Nueva Ecija",
    "city": "Gen. Tinio",
    "postal": "3104",
    "lat": 15.3407,
    "lon": 120.9247
  },
  {
    "country": "PH",
    "region": "Central Luzon",
    "province": "Province of Nueva Ecija",
    "city": "Gapan City",
    "postal": "3105",
    "lat": 15.3407,
    "lon": 120.9247
  },
  {
    "country": "PH",
    "region": "Central Luzon",
    "province": "Province of Nueva Ecija",
    "city": "San Isidro",
    "postal": "3106",
    "lat": 15.3021,
    "lon": 120.9087
  },
  {
    "country": "PH",
    "region": "Central Luzon",
    "province": "Province of Nueva Ecija",
    "city": "Cabiao",
    "postal": "3107",
    "lat": 15.2488,
    "lon": 120.8548
  },
  {
    "country": "PH",
    "region": "Central Luzon",
    "province": "Province of Nueva Ecija",
    "city": "San Antonio",
    "postal": "3108",
    "lat": 15.3062,
    "lon": 120.856
  },
  {
    "country": "PH",
    "region": "Central Luzon",
    "province": "Province of Nueva Ecija",
    "city": "Jaen",
    "postal": "3109",
    "lat": 15.3275,
    "lon": 120.9192
  },
  {
    "country": "PH",
    "region": "Central Luzon",
    "province": "Province of Nueva Ecija",
    "city": "Zaragoza",
    "postal": "3110",
    "lat": 15.449,
    "lon": 120.7963
  },
  {
    "country": "PH",
    "region": "Central Luzon",
    "province": "Province of Nueva Ecija",
    "city": "Aliaga",
    "postal": "3111",
    "lat": 15.5,
    "lon": 120.843
  },
  {
    "country": "PH",
    "region": "Central Luzon",
    "province": "Province of Nueva Ecija",
    "city": "Licab",
    "postal": "3112",
    "lat": 15.5439,
    "lon": 120.7634
  },
  {
    "country": "PH",
    "region": "Central Luzon",
    "province": "Province of Nueva Ecija",
    "city": "Quezon",
    "postal": "3113",
    "lat": 15.5512,
    "lon": 120.8147
  },
  {
    "country": "PH",
    "region": "Central Luzon",
    "province": "Province of Nueva Ecija",
    "city": "Talavera",
    "postal": "3114",
    "lat": 15.5883,
    "lon": 120.9192
  },
  {
    "country": "PH",
    "region": "Central Luzon",
    "province": "Province of Nueva Ecija",
    "city": "Guimba",
    "postal": "3115",
    "lat": 15.6605,
    "lon": 120.7683
  },
  {
    "country": "PH",
    "region": "Central Luzon",
    "province": "Province of Nueva Ecija",
    "city": "Nampicuan",
    "postal": "3116",
    "lat": 15.6188,
    "lon": 120.8093
  },
  {
    "country": "PH",
    "region": "Central Luzon",
    "province": "Province of Nueva Ecija",
    "city": "Cuyapo",
    "postal": "3117",
    "lat": 15.7819,
    "lon": 120.6647
  },
  {
    "country": "PH",
    "region": "Central Luzon",
    "province": "Province of Nueva Ecija",
    "city": "Talugtog",
    "postal": "3118",
    "lat": 15.7778,
    "lon": 120.8111
  },
  {
    "country": "PH",
    "region": "Central Luzon",
    "province": "Province of Nueva Ecija",
    "city": "Muñoz",
    "postal": "3119",
    "lat": 15.7161,
    "lon": 120.9031
  },
  {
    "country": "PH",
    "region": "Central Luzon",
    "province": "Province of Nueva Ecija",
    "city": "Central Luzon State University",
    "postal": "3120",
    "lat": 15.7253,
    "lon": 121.0692
  },
  {
    "country": "PH",
    "region": "Central Luzon",
    "province": "Province of Nueva Ecija",
    "city": "San Jose City",
    "postal": "3121",
    "lat": 15.7923,
    "lon": 120.9894
  },
  {
    "country": "PH",
    "region": "Central Luzon",
    "province": "Province of Nueva Ecija",
    "city": "Lupao",
    "postal": "3122",
    "lat": 15.8793,
    "lon": 120.8983
  },
  {
    "country": "PH",
    "region": "Central Luzon",
    "province": "Province of Nueva Ecija",
    "city": "Carrangalan",
    "postal": "3123",
    "lat": 15.7253,
    "lon": 121.0692
  },
  {
    "country": "PH",
    "region": "Central Luzon",
    "province": "Province of Nueva Ecija",
    "city": "Pantabangan",
    "postal": "3124",
    "lat": 15.8113,
    "lon": 121.1443
  },
  {
    "country": "PH",
    "region": "Central Luzon",
    "province": "Province of Nueva Ecija",
    "city": "Gen. M. Natividad",
    "postal": "3125",
    "lat": 15.7253,
    "lon": 121.0692
  },
  {
    "country": "PH",
    "region": "Central Luzon",
    "province": "Province of Nueva Ecija",
    "city": "Llanera",
    "postal": "3126",
    "lat": 15.6635,
    "lon": 121.0182
  },
  {
    "country": "PH",
    "region": "Central Luzon",
    "province": "Province of Nueva Ecija",
    "city": "Rizal",
    "postal": "3127",
    "lat": 15.7118,
    "lon": 121.1061
  },
  {
    "country": "PH",
    "region": "Central Luzon",
    "province": "Province of Nueva Ecija",
    "city": "Bongabon",
    "postal": "3128",
    "lat": 15.6321,
    "lon": 121.1448
  },
  {
    "country": "PH",
    "region": "Central Luzon",
    "province": "Province of Nueva Ecija",
    "city": "Laur",
    "postal": "3129",
    "lat": 15.5865,
    "lon": 121.1834
  },
  {
    "country": "PH",
    "region": "Central Luzon",
    "province": "Province of Nueva Ecija",
    "city": "Fort Magsaysay",
    "postal": "3130",
    "lat": 15.434,
    "lon": 121.0763
  },
  {
    "country": "PH",
    "region": "Central Luzon",
    "province": "Province of Nueva Ecija",
    "city": "Gabaldon",
    "postal": "3131",
    "lat": 15.4522,
    "lon": 121.3387
  },
  {
    "country": "PH",
    "region": "Central Luzon",
    "province": "Province of Nueva Ecija",
    "city": "Palayan City",
    "postal": "3132",
    "lat": 15.5415,
    "lon": 121.0848
  },
  {
    "country": "PH",
    "region": "Central Luzon",
    "province": "Province of Nueva Ecija",
    "city": "Sto. Domingo",
    "postal": "3133",
    "lat": 15.4759,
    "lon": 121.1666
  },
  {
    "country": "PH",
    "region": "Central Luzon",
    "province": "Province of Pampanga",
    "city": "San Fernando",
    "postal": "2000",
    "lat": 15.0343,
    "lon": 120.6844
  },
  {
    "country": "PH",
    "region": "Central Luzon",
    "province": "Province of Pampanga",
    "city": "Bacolor",
    "postal": "2001",
    "lat": 15.0003,
    "lon": 120.652
  },
  {
    "country": "PH",
    "region": "Central Luzon",
    "province": "Province of Pampanga",
    "city": "Santa Rita",
    "postal": "2002",
    "lat": 14.9993,
    "lon": 120.6117
  },
  {
    "country": "PH",
    "region": "Central Luzon",
    "province": "Province of Pampanga",
    "city": "Guagua",
    "postal": "2003",
    "lat": 14.9653,
    "lon": 120.6325
  },
  {
    "country": "PH",
    "region": "Central Luzon",
    "province": "Province of Pampanga",
    "city": "Sasmuan",
    "postal": "2004",
    "lat": 14.9438,
    "lon": 120.6229
  },
  {
    "country": "PH",
    "region": "Central Luzon",
    "province": "Province of Pampanga",
    "city": "Lubao",
    "postal": "2005",
    "lat": 14.9405,
    "lon": 120.6011
  },
  {
    "country": "PH",
    "region": "Central Luzon",
    "province": "Province of Pampanga",
    "city": "Floridablanca",
    "postal": "2006",
    "lat": 14.9775,
    "lon": 120.5285
  },
  {
    "country": "PH",
    "region": "Central Luzon",
    "province": "Province of Pampanga",
    "city": "Basa airbase",
    "postal": "2007",
    "lat": 15.0091,
    "lon": 120.6065
  },
  {
    "country": "PH",
    "region": "Central Luzon",
    "province": "Province of Pampanga",
    "city": "Porac",
    "postal": "2008",
    "lat": 15.0711,
    "lon": 120.5423
  },
  {
    "country": "PH",
    "region": "Central Luzon",
    "province": "Province of Pampanga",
    "city": "Angeles City",
    "postal": "2009",
    "lat": 15.15,
    "lon": 120.5833
  },
  {
    "country": "PH",
    "region": "Central Luzon",
    "province": "Province of Pampanga",
    "city": "Mabalacat",
    "postal": "2010",
    "lat": 15.0252,
    "lon": 120.7447
  },
  {
    "country": "PH",
    "region": "Central Luzon",
    "province": "Province of Pampanga",
    "city": "Magalang",
    "postal": "2011",
    "lat": 15.2151,
    "lon": 120.6596
  },
  {
    "country": "PH",
    "region": "Central Luzon",
    "province": "Province of Pampanga",
    "city": "Arayat",
    "postal": "2012",
    "lat": 15.1505,
    "lon": 120.7697
  },
  {
    "country": "PH",
    "region": "Central Luzon",
    "province": "Province of Pampanga",
    "city": "Candaba",
    "postal": "2013",
    "lat": 15.0956,
    "lon": 120.8267
  },
  {
    "country": "PH",
    "region": "Central Luzon",
    "province": "Province of Pampanga",
    "city": "San Luis",
    "postal": "2014",
    "lat": 15.0401,
    "lon": 120.7883
  },
  {
    "country": "PH",
    "region": "Central Luzon",
    "province": "Province of Pampanga",
    "city": "San Simon",
    "postal": "2015",
    "lat": 14.9996,
    "lon": 120.7808
  },
  {
    "country": "PH",
    "region": "Central Luzon",
    "province": "Province of Pampanga",
    "city": "Apalit",
    "postal": "2016",
    "lat": 14.9533,
    "lon": 120.77
  },
  {
    "country": "PH",
    "region": "Central Luzon",
    "province": "Province of Pampanga",
    "city": "Masantol",
    "postal": "2017",
    "lat": 14.896,
    "lon": 120.7092
  },
  {
    "country": "PH",
    "region": "Central Luzon",
    "province": "Province of Pampanga",
    "city": "Macabebe",
    "postal": "2018",
    "lat": 14.9089,
    "lon": 120.7155
  },
  {
    "country": "PH",
    "region": "Central Luzon",
    "province": "Province of Pampanga",
    "city": "Minalin",
    "postal": "2019",
    "lat": 14.9676,
    "lon": 120.6828
  },
  {
    "country": "PH",
    "region": "Central Luzon",
    "province": "Province of Pampanga",
    "city": "Santo Tomas",
    "postal": "2020",
    "lat": 14.9515,
    "lon": 120.6268
  },
  {
    "country": "PH",
    "region": "Central Luzon",
    "province": "Province of Pampanga",
    "city": "Mexico",
    "postal": "2021",
    "lat": 15.0646,
    "lon": 120.7198
  },
  {
    "country": "PH",
    "region": "Central Luzon",
    "province": "Province of Pampanga",
    "city": "Santa Ana",
    "postal": "2022",
    "lat": 15.0955,
    "lon": 120.767
  },
  {
    "country": "PH",
    "region": "Central Luzon",
    "province": "Province of Pampanga",
    "city": "CSEZ, Clark",
    "postal": "2023",
    "lat": 15.0611,
    "lon": 120.6438
  },
  {
    "country": "PH",
    "region": "Central Luzon",
    "province": "Province of Pampanga",
    "city": "Balibago",
    "postal": "2024",
    "lat": 15.1624,
    "lon": 120.5954
  },
  {
    "country": "PH",
    "region": "Central Luzon",
    "province": "Province of Pampanga",
    "city": "Santa Cruz, Lubao",
    "postal": "2025",
    "lat": 14.9127,
    "lon": 120.5666
  },
  {
    "country": "PH",
    "region": "Central Luzon",
    "province": "Province of Pampanga",
    "city": "Dau, Mabalacat",
    "postal": "2026",
    "lat": 15.1799,
    "lon": 120.5871
  },
  {
    "country": "PH",
    "region": "Central Luzon",
    "province": "Province of Tarlac",
    "city": "Tarlac",
    "postal": "2300",
    "lat": 15.4802,
    "lon": 120.5979
  },
  {
    "country": "PH",
    "region": "Central Luzon",
    "province": "Province of Tarlac",
    "city": "San Miguel",
    "postal": "2301",
    "lat": 15.444,
    "lon": 120.5992
  },
  {
    "country": "PH",
    "region": "Central Luzon",
    "province": "Province of Tarlac",
    "city": "Gerona",
    "postal": "2302",
    "lat": 15.6065,
    "lon": 120.5978
  },
  {
    "country": "PH",
    "region": "Central Luzon",
    "province": "Province of Tarlac",
    "city": "Sta. Ignacia",
    "postal": "2303",
    "lat": 15.5879,
    "lon": 120.5427
  },
  {
    "country": "PH",
    "region": "Central Luzon",
    "province": "Province of Tarlac",
    "city": "Mayantoc",
    "postal": "2304",
    "lat": 15.6199,
    "lon": 120.377
  },
  {
    "country": "PH",
    "region": "Central Luzon",
    "province": "Province of Tarlac",
    "city": "San Clemente",
    "postal": "2305",
    "lat": 15.7124,
    "lon": 120.359
  },
  {
    "country": "PH",
    "region": "Central Luzon",
    "province": "Province of Tarlac",
    "city": "Camiling",
    "postal": "2306",
    "lat": 15.5333,
    "lon": 120.5333
  },
  {
    "country": "PH",
    "region": "Central Luzon",
    "province": "Province of Tarlac",
    "city": "Paniqui",
    "postal": "2307",
    "lat": 15.6689,
    "lon": 120.5806
  },
  {
    "country": "PH",
    "region": "Central Luzon",
    "province": "Province of Tarlac",
    "city": "Moncada",
    "postal": "2308",
    "lat": 15.7354,
    "lon": 120.574
  },
  {
    "country": "PH",
    "region": "Central Luzon",
    "province": "Province of Tarlac",
    "city": "San Manuel",
    "postal": "2309",
    "lat": 15.4905,
    "lon": 120.6654
  },
  {
    "country": "PH",
    "region": "Central Luzon",
    "province": "Province of Tarlac",
    "city": "Anao",
    "postal": "2310",
    "lat": 15.7291,
    "lon": 120.6253
  },
  {
    "country": "PH",
    "region": "Central Luzon",
    "province": "Province of Tarlac",
    "city": "Ramos",
    "postal": "2311",
    "lat": 15.6653,
    "lon": 120.6406
  },
  {
    "country": "PH",
    "region": "Central Luzon",
    "province": "Province of Tarlac",
    "city": "Pura",
    "postal": "2312",
    "lat": 15.6248,
    "lon": 120.648
  },
  {
    "country": "PH",
    "region": "Central Luzon",
    "province": "Province of Tarlac",
    "city": "Victoria",
    "postal": "2313",
    "lat": 15.5775,
    "lon": 120.6822
  },
  {
    "country": "PH",
    "region": "Central Luzon",
    "province": "Province of Tarlac",
    "city": "La Paz",
    "postal": "2314",
    "lat": 15.4413,
    "lon": 120.7286
  },
  {
    "country": "PH",
    "region": "Central Luzon",
    "province": "Province of Tarlac",
    "city": "Capas",
    "postal": "2315",
    "lat": 15.3312,
    "lon": 120.5898
  },
  {
    "country": "PH",
    "region": "Central Luzon",
    "province": "Province of Tarlac",
    "city": "Concepcion",
    "postal": "2316",
    "lat": 15.3255,
    "lon": 120.6572
  },
  {
    "country": "PH",
    "region": "Central Luzon",
    "province": "Province of Tarlac",
    "city": "Bamban",
    "postal": "2317",
    "lat": 15.2739,
    "lon": 120.5668
  },
  {
    "country": "PH",
    "region": "Central Luzon",
    "province": "Province of Tarlac",
    "city": "San Jose",
    "postal": "2318",
    "lat": 15.488,
    "lon": 120.6401
  },
  {
    "country": "PH",
    "region": "Central Luzon",
    "province": "Province of Zambales",
    "city": "Olongapo City",
    "postal": "2200",
    "lat": 14.8292,
    "lon": 120.2828
  },
  {
    "country": "PH",
    "region": "Central Luzon",
    "province": "Province of Zambales",
    "city": "Iba",
    "postal": "2201",
    "lat": 15.3276,
    "lon": 119.978
  },
  {
    "country": "PH",
    "region": "Central Luzon",
    "province": "Province of Zambales",
    "city": "Botolan",
    "postal": "2202",
    "lat": 15.2896,
    "lon": 120.0245
  },
  {
    "country": "PH",
    "region": "Central Luzon",
    "province": "Province of Zambales",
    "city": "Cabangan",
    "postal": "2203",
    "lat": 15.158,
    "lon": 120.0569
  },
  {
    "country": "PH",
    "region": "Central Luzon",
    "province": "Province of Zambales",
    "city": "San Felipe",
    "postal": "2204",
    "lat": 15.0633,
    "lon": 120.1174
  },
  {
    "country": "PH",
    "region": "Central Luzon",
    "province": "Province of Zambales",
    "city": "San Narciso",
    "postal": "2205",
    "lat": 15.0143,
    "lon": 120.0803
  },
  {
    "country": "PH",
    "region": "Central Luzon",
    "province": "Province of Zambales",
    "city": "San Antonio",
    "postal": "2206",
    "lat": 15.1646,
    "lon": 120.0474
  },
  {
    "country": "PH",
    "region": "Central Luzon",
    "province": "Province of Zambales",
    "city": "San Marcelino",
    "postal": "2207",
    "lat": 14.9742,
    "lon": 120.1573
  },
  {
    "country": "PH",
    "region": "Central Luzon",
    "province": "Province of Zambales",
    "city": "Castillejos",
    "postal": "2208",
    "lat": 14.9336,
    "lon": 120.1979
  },
  {
    "country": "PH",
    "region": "Central Luzon",
    "province": "Province of Zambales",
    "city": "Subic",
    "postal": "2209",
    "lat": 14.8787,
    "lon": 120.2319
  },
  {
    "country": "PH",
    "region": "Central Luzon",
    "province": "Province of Zambales",
    "city": "Palauig",
    "postal": "2210",
    "lat": 15.435,
    "lon": 119.9045
  },
  {
    "country": "PH",
    "region": "Central Luzon",
    "province": "Province of Zambales",
    "city": "Masinloc",
    "postal": "2211",
    "lat": 15.5363,
    "lon": 119.9502
  },
  {
    "country": "PH",
    "region": "Central Luzon",
    "province": "Province of Zambales",
    "city": "Candelaria",
    "postal": "2212",
    "lat": 15.6254,
    "lon": 119.9297
  },
  {
    "country": "PH",
    "region": "Central Luzon",
    "province": "Province of Zambales",
    "city": "Sta. Cruz",
    "postal": "2213",
    "lat": 15.7654,
    "lon": 119.9092
  },
  {
    "country": "PH",
    "region": "Central Luzon",
    "province": "Province of Aurora",
    "city": "Baler",
    "postal": "3200",
    "lat": 15.7589,
    "lon": 121.5607
  },
  {
    "country": "PH",
    "region": "Central Luzon",
    "province": "Province of Aurora",
    "city": "San Luis",
    "postal": "3201",
    "lat": 15.7208,
    "lon": 121.5205
  },
  {
    "country": "PH",
    "region": "Central Luzon",
    "province": "Province of Aurora",
    "city": "Maria Aurora",
    "postal": "3202",
    "lat": 15.7967,
    "lon": 121.4737
  },
  {
    "country": "PH",
    "region": "Central Luzon",
    "province": "Province of Aurora",
    "city": "Dipaculao",
    "postal": "3203",
    "lat": 15.8479,
    "lon": 121.5383
  },
  {
    "country": "PH",
    "region": "Central Luzon",
    "province": "Province of Aurora",
    "city": "Casiguran",
    "postal": "3204",
    "lat": 16.1329,
    "lon": 121.9418
  },
  {
    "country": "PH",
    "region": "Central Luzon",
    "province": "Province of Aurora",
    "city": "Dilasag",
    "postal": "3205",
    "lat": 16.3975,
    "lon": 122.2131
  },
  {
    "country": "PH",
    "region": "Central Luzon",
    "province": "Province of Aurora",
    "city": "Dinalungan",
    "postal": "3206",
    "lat": 15.9234,
    "lon": 121.7005
  },
  {
    "country": "PH",
    "region": "Central Luzon",
    "province": "Province of Aurora",
    "city": "Dingalan",
    "postal": "3207",
    "lat": 15.9424,
    "lon": 121.708
  },
  {
    "country": "PH",
    "region": "Bicol",
    "province": "Province of Albay",
    "city": "Legazpi City",
    "postal": "4500",
    "lat": 13.2479,
    "lon": 123.5692
  },
  {
    "country": "PH",
    "region": "Bicol",
    "province": "Province of Albay",
    "city": "Daraga (Locsin)",
    "postal": "4501",
    "lat": 13.2479,
    "lon": 123.5692
  },
  {
    "country": "PH",
    "region": "Bicol",
    "province": "Province of Albay",
    "city": "Camalig",
    "postal": "4502",
    "lat": 13.1821,
    "lon": 123.6543
  },
  {
    "country": "PH",
    "region": "Bicol",
    "province": "Province of Albay",
    "city": "Guinobatan",
    "postal": "4503",
    "lat": 13.1913,
    "lon": 123.5987
  },
  {
    "country": "PH",
    "region": "Bicol",
    "province": "Province of Albay",
    "city": "Ligao",
    "postal": "4504",
    "lat": 13.217,
    "lon": 123.5192
  },
  {
    "country": "PH",
    "region": "Bicol",
    "province": "Province of Albay",
    "city": "Oas",
    "postal": "4505",
    "lat": 13.2593,
    "lon": 123.4963
  },
  {
    "country": "PH",
    "region": "Bicol",
    "province": "Province of Albay",
    "city": "Polangui",
    "postal": "4506",
    "lat": 13.2923,
    "lon": 123.4855
  },
  {
    "country": "PH",
    "region": "Bicol",
    "province": "Province of Albay",
    "city": "Libon",
    "postal": "4507",
    "lat": 13.2997,
    "lon": 123.4386
  },
  {
    "country": "PH",
    "region": "Bicol",
    "province": "Province of Albay",
    "city": "Sto. Domingo",
    "postal": "4508",
    "lat": 13.2479,
    "lon": 123.5692
  },
  {
    "country": "PH",
    "region": "Bicol",
    "province": "Province of Albay",
    "city": "Bacacay",
    "postal": "4509",
    "lat": 13.2934,
    "lon": 123.7919
  },
  {
    "country": "PH",
    "region": "Bicol",
    "province": "Province of Albay",
    "city": "Malilipot",
    "postal": "4510",
    "lat": 13.3188,
    "lon": 123.7385
  },
  {
    "country": "PH",
    "region": "Bicol",
    "province": "Province of Albay",
    "city": "Tabaco",
    "postal": "4511",
    "lat": 13.3586,
    "lon": 123.7336
  },
  {
    "country": "PH",
    "region": "Bicol",
    "province": "Province of Albay",
    "city": "Malinao",
    "postal": "4512",
    "lat": 13.0167,
    "lon": 123.6333
  },
  {
    "country": "PH",
    "region": "Bicol",
    "province": "Province of Albay",
    "city": "Tiwi",
    "postal": "4513",
    "lat": 13.4585,
    "lon": 123.6805
  },
  {
    "country": "PH",
    "region": "Bicol",
    "province": "Province of Albay",
    "city": "Manito",
    "postal": "4514",
    "lat": 13.1235,
    "lon": 123.8693
  },
  {
    "country": "PH",
    "region": "Bicol",
    "province": "Province of Albay",
    "city": "Jovellar",
    "postal": "4515",
    "lat": 13.0695,
    "lon": 123.5999
  },
  {
    "country": "PH",
    "region": "Bicol",
    "province": "Province of Albay",
    "city": "Pio Duran (Malacbalac)",
    "postal": "4516",
    "lat": 13.2189,
    "lon": 123.7687
  },
  {
    "country": "PH",
    "region": "Bicol",
    "province": "Province of Albay",
    "city": "Rapu-Rapu",
    "postal": "4517",
    "lat": 13.1866,
    "lon": 124.1256
  },
  {
    "country": "PH",
    "region": "Bicol",
    "province": "Province of Camarines Norte",
    "city": "Daet",
    "postal": "4600",
    "lat": 14.1122,
    "lon": 122.9553
  },
  {
    "country": "PH",
    "region": "Bicol",
    "province": "Province of Camarines Norte",
    "city": "Mercedes",
    "postal": "4601",
    "lat": 14.1093,
    "lon": 123.0109
  },
  {
    "country": "PH",
    "region": "Bicol",
    "province": "Province of Camarines Norte",
    "city": "Talisay",
    "postal": "4602",
    "lat": 14.1343,
    "lon": 122.9226
  },
  {
    "country": "PH",
    "region": "Bicol",
    "province": "Province of Camarines Norte",
    "city": "Vinzons",
    "postal": "4603",
    "lat": 14.1737,
    "lon": 122.9066
  },
  {
    "country": "PH",
    "region": "Bicol",
    "province": "Province of Camarines Norte",
    "city": "Labo",
    "postal": "4604",
    "lat": 14.1532,
    "lon": 122.8303
  },
  {
    "country": "PH",
    "region": "Bicol",
    "province": "Province of Camarines Norte",
    "city": "Paracale",
    "postal": "4605",
    "lat": 14.2804,
    "lon": 122.7881
  },
  {
    "country": "PH",
    "region": "Bicol",
    "province": "Province of Camarines Norte",
    "city": "Jose Panganiban",
    "postal": "4606",
    "lat": 14.2906,
    "lon": 122.6917
  },
  {
    "country": "PH",
    "region": "Bicol",
    "province": "Province of Camarines Norte",
    "city": "Capalonga",
    "postal": "4607",
    "lat": 14.3306,
    "lon": 122.4937
  },
  {
    "country": "PH",
    "region": "Bicol",
    "province": "Province of Camarines Norte",
    "city": "Basud",
    "postal": "4608",
    "lat": 14.065,
    "lon": 122.9642
  },
  {
    "country": "PH",
    "region": "Bicol",
    "province": "Province of Camarines Norte",
    "city": "San Vicente",
    "postal": "4609",
    "lat": 14.1061,
    "lon": 122.8733
  },
  {
    "country": "PH",
    "region": "Bicol",
    "province": "Province of Camarines Norte",
    "city": "San Lorenzo Ruiz (formerly Imelda)",
    "postal": "4610",
    "lat": 14.0934,
    "lon": 122.7862
  },
  {
    "country": "PH",
    "region": "Bicol",
    "province": "Province of Camarines Norte",
    "city": "Sta. Elena",
    "postal": "4611",
    "lat": 14.0934,
    "lon": 122.7862
  },
  {
    "country": "PH",
    "region": "Bicol",
    "province": "Province of Camarines Norte",
    "city": "Tulay na Lupa",
    "postal": "4612",
    "lat": 14.0934,
    "lon": 122.7862
  },
  {
    "country": "PH",
    "region": "Bicol",
    "province": "Province of Camarines Sur",
    "city": "Naga City",
    "postal": "4400",
    "lat": 13.6192,
    "lon": 123.1814
  },
  {
    "country": "PH",
    "region": "Bicol",
    "province": "Province of Camarines Sur",
    "city": "Camaligan",
    "postal": "4401",
    "lat": 13.6224,
    "lon": 123.1667
  },
  {
    "country": "PH",
    "region": "Bicol",
    "province": "Province of Camarines Sur",
    "city": "Canaman",
    "postal": "4402",
    "lat": 13.648,
    "lon": 123.1699
  },
  {
    "country": "PH",
    "region": "Bicol",
    "province": "Province of Camarines Sur",
    "city": "Magarao",
    "postal": "4403",
    "lat": 13.6604,
    "lon": 123.1869
  },
  {
    "country": "PH",
    "region": "Bicol",
    "province": "Province of Camarines Sur",
    "city": "Bombon",
    "postal": "4404",
    "lat": 13.6887,
    "lon": 123.2077
  },
  {
    "country": "PH",
    "region": "Bicol",
    "province": "Province of Camarines Sur",
    "city": "Calabanga",
    "postal": "4405",
    "lat": 13.7068,
    "lon": 123.2087
  },
  {
    "country": "PH",
    "region": "Bicol",
    "province": "Province of Camarines Sur",
    "city": "Cabusao",
    "postal": "4406",
    "lat": 13.7227,
    "lon": 123.1169
  },
  {
    "country": "PH",
    "region": "Bicol",
    "province": "Province of Camarines Sur",
    "city": "Libmanan",
    "postal": "4407",
    "lat": 13.6928,
    "lon": 123.0596
  },
  {
    "country": "PH",
    "region": "Bicol",
    "province": "Province of Camarines Sur",
    "city": "Sipocot",
    "postal": "4408",
    "lat": 13.768,
    "lon": 122.9762
  },
  {
    "country": "PH",
    "region": "Bicol",
    "province": "Province of Camarines Sur",
    "city": "Lupi",
    "postal": "4409",
    "lat": 13.5333,
    "lon": 123.15
  },
  {
    "country": "PH",
    "region": "Bicol",
    "province": "Province of Camarines Sur",
    "city": "Ragay",
    "postal": "4410",
    "lat": 13.8183,
    "lon": 122.7923
  },
  {
    "country": "PH",
    "region": "Bicol",
    "province": "Province of Camarines Sur",
    "city": "Del Gallego",
    "postal": "4411",
    "lat": 13.9223,
    "lon": 122.5954
  },
  {
    "country": "PH",
    "region": "Bicol",
    "province": "Province of Camarines Sur",
    "city": "Gainza",
    "postal": "4412",
    "lat": 13.6165,
    "lon": 123.1419
  },
  {
    "country": "PH",
    "region": "Bicol",
    "province": "Province of Camarines Sur",
    "city": "Milaor",
    "postal": "4413",
    "lat": 13.5961,
    "lon": 123.1772
  },
  {
    "country": "PH",
    "region": "Bicol",
    "province": "Province of Camarines Sur",
    "city": "Minalabac",
    "postal": "4414",
    "lat": 13.5687,
    "lon": 123.1838
  },
  {
    "country": "PH",
    "region": "Bicol",
    "province": "Province of Camarines Sur",
    "city": "San Fernando",
    "postal": "4415",
    "lat": 13.5656,
    "lon": 123.1453
  },
  {
    "country": "PH",
    "region": "Bicol",
    "province": "Province of Camarines Sur",
    "city": "Pamplona",
    "postal": "4416",
    "lat": 13.5916,
    "lon": 123.0816
  },
  {
    "country": "PH",
    "region": "Bicol",
    "province": "Province of Camarines Sur",
    "city": "Pasacao",
    "postal": "4417",
    "lat": 13.5118,
    "lon": 123.0426
  },
  {
    "country": "PH",
    "region": "Bicol",
    "province": "Province of Camarines Sur",
    "city": "Pili",
    "postal": "4418",
    "lat": 13.6667,
    "lon": 123.3167
  },
  {
    "country": "PH",
    "region": "Bicol",
    "province": "Province of Camarines Sur",
    "city": "Ocampo",
    "postal": "4419",
    "lat": 13.5594,
    "lon": 123.3761
  },
  {
    "country": "PH",
    "region": "Bicol",
    "province": "Province of Camarines Sur",
    "city": "Tigaon",
    "postal": "4420",
    "lat": 13.6331,
    "lon": 123.4968
  },
  {
    "country": "PH",
    "region": "Bicol",
    "province": "Province of Camarines Sur",
    "city": "Sagnay",
    "postal": "4421",
    "lat": 13.6029,
    "lon": 123.5225
  },
  {
    "country": "PH",
    "region": "Bicol",
    "province": "Province of Camarines Sur",
    "city": "Goa",
    "postal": "4422",
    "lat": 13.6978,
    "lon": 123.4892
  },
  {
    "country": "PH",
    "region": "Bicol",
    "province": "Province of Camarines Sur",
    "city": "San Jose",
    "postal": "4423",
    "lat": 13.6993,
    "lon": 123.5178
  },
  {
    "country": "PH",
    "region": "Bicol",
    "province": "Province of Camarines Sur",
    "city": "Presentacion",
    "postal": "4424",
    "lat": 13.7594,
    "lon": 123.5201
  },
  {
    "country": "PH",
    "region": "Bicol",
    "province": "Province of Camarines Sur",
    "city": "Lagonoy",
    "postal": "4425",
    "lat": 13.7342,
    "lon": 123.5207
  },
  {
    "country": "PH",
    "region": "Bicol",
    "province": "Province of Camarines Sur",
    "city": "Tinambac",
    "postal": "4426",
    "lat": 13.8164,
    "lon": 123.3261
  },
  {
    "country": "PH",
    "region": "Bicol",
    "province": "Province of Camarines Sur",
    "city": "Siruma",
    "postal": "4427",
    "lat": 14.0,
    "lon": 123.25
  },
  {
    "country": "PH",
    "region": "Bicol",
    "province": "Province of Camarines Sur",
    "city": "Garchitorena",
    "postal": "4428",
    "lat": 13.8804,
    "lon": 123.6946
  },
  {
    "country": "PH",
    "region": "Bicol",
    "province": "Province of Camarines Sur",
    "city": "Caramoan",
    "postal": "4429",
    "lat": 13.7707,
    "lon": 123.8631
  },
  {
    "country": "PH",
    "region": "Bicol",
    "province": "Province of Camarines Sur",
    "city": "Bula",
    "postal": "4430",
    "lat": 13.4701,
    "lon": 123.278
  },
  {
    "country": "PH",
    "region": "Bicol",
    "province": "Province of Camarines Sur",
    "city": "Iriga City",
    "postal": "4431",
    "lat": 13.4324,
    "lon": 123.4115
  },
  {
    "country": "PH",
    "region": "Bicol",
    "province": "Province of Camarines Sur",
    "city": "Baao",
    "postal": "4432",
    "lat": 13.4549,
    "lon": 123.3653
  },
  {
    "country": "PH",
    "region": "Bicol",
    "province": "Province of Camarines Sur",
    "city": "Buhi",
    "postal": "4433",
    "lat": 13.4322,
    "lon": 123.517
  },
  {
    "country": "PH",
    "region": "Bicol",
    "province": "Province of Camarines Sur",
    "city": "Nabua",
    "postal": "4434",
    "lat": 13.4075,
    "lon": 123.3724
  },
  {
    "country": "PH",
    "region": "Bicol",
    "province": "Province of Camarines Sur",
    "city": "Bato",
    "postal": "4435",
    "lat": 13.3528,
    "lon": 123.3677
  },
  {
    "country": "PH",
    "region": "Bicol",
    "province": "Province of Camarines Sur",
    "city": "Balatan",
    "postal": "4436",
    "lat": 13.3211,
    "lon": 123.2333
  },
  {
    "country": "PH",
    "region": "Bicol",
    "province": "Province of Catanduanes",
    "city": "Virac",
    "postal": "4800",
    "lat": 13.5848,
    "lon": 124.2374
  },
  {
    "country": "PH",
    "region": "Bicol",
    "province": "Province of Catanduanes",
    "city": "Bato",
    "postal": "4801",
    "lat": 13.6068,
    "lon": 124.2986
  },
  {
    "country": "PH",
    "region": "Bicol",
    "province": "Province of Catanduanes",
    "city": "San Miguel",
    "postal": "4802",
    "lat": 13.8959,
    "lon": 124.2725
  },
  {
    "country": "PH",
    "region": "Bicol",
    "province": "Province of Catanduanes",
    "city": "Baras",
    "postal": "4803",
    "lat": 13.6588,
    "lon": 124.37
  },
  {
    "country": "PH",
    "region": "Bicol",
    "province": "Province of Catanduanes",
    "city": "Gigmoto",
    "postal": "4804",
    "lat": 13.7796,
    "lon": 124.39
  },
  {
    "country": "PH",
    "region": "Bicol",
    "province": "Province of Catanduanes",
    "city": "Viga",
    "postal": "4805",
    "lat": 13.8719,
    "lon": 124.3091
  },
  {
    "country": "PH",
    "region": "Bicol",
    "province": "Province of Catanduanes",
    "city": "Panganiban",
    "postal": "4806",
    "lat": 13.9003,
    "lon": 124.2982
  },
  {
    "country": "PH",
    "region": "Bicol",
    "province": "Province of Catanduanes",
    "city": "Bagamanoc",
    "postal": "4807",
    "lat": 13.9404,
    "lon": 124.2896
  },
  {
    "country": "PH",
    "region": "Bicol",
    "province": "Province of Catanduanes",
    "city": "Caramoran",
    "postal": "4808",
    "lat": 13.9849,
    "lon": 124.1347
  },
  {
    "country": "PH",
    "region": "Bicol",
    "province": "Province of Catanduanes",
    "city": "Pandan",
    "postal": "4809",
    "lat": 14.0453,
    "lon": 124.1694
  },
  {
    "country": "PH",
    "region": "Bicol",
    "province": "Province of Catanduanes",
    "city": "San Andres",
    "postal": "4810",
    "lat": 13.6,
    "lon": 124.1
  },
  {
    "country": "PH",
    "region": "Bicol",
    "province": "Province of Masbate",
    "city": "Masbate",
    "postal": "5400",
    "lat": 12.3717,
    "lon": 123.6249
  },
  {
    "country": "PH",
    "region": "Bicol",
    "province": "Province of Masbate",
    "city": "Mobo",
    "postal": "5401",
    "lat": 12.3363,
    "lon": 123.6574
  },
  {
    "country": "PH",
    "region": "Bicol",
    "province": "Province of Masbate",
    "city": "Uson",
    "postal": "5402",
    "lat": 12.2253,
    "lon": 123.7834
  },
  {
    "country": "PH",
    "region": "Bicol",
    "province": "Province of Masbate",
    "city": "Dimasalang",
    "postal": "5403",
    "lat": 12.1923,
    "lon": 123.8592
  },
  {
    "country": "PH",
    "region": "Bicol",
    "province": "Province of Masbate",
    "city": "Palanas",
    "postal": "5404",
    "lat": 12.1458,
    "lon": 123.9216
  },
  {
    "country": "PH",
    "region": "Bicol",
    "province": "Province of Masbate",
    "city": "Cataingan",
    "postal": "5405",
    "lat": 12.003,
    "lon": 123.992
  },
  {
    "country": "PH",
    "region": "Bicol",
    "province": "Province of Masbate",
    "city": "Pio V. Corpuz",
    "postal": "5406",
    "lat": 12.0897,
    "lon": 123.841
  },
  {
    "country": "PH",
    "region": "Bicol",
    "province": "Province of Masbate",
    "city": "Esperanza",
    "postal": "5407",
    "lat": 11.7365,
    "lon": 124.042
  },
  {
    "country": "PH",
    "region": "Bicol",
    "province": "Province of Masbate",
    "city": "Placer",
    "postal": "5408",
    "lat": 11.8687,
    "lon": 123.9184
  },
  {
    "country": "PH",
    "region": "Bicol",
    "province": "Province of Masbate",
    "city": "Cawayan",
    "postal": "5409",
    "lat": 11.9275,
    "lon": 123.7698
  },
  {
    "country": "PH",
    "region": "Bicol",
    "province": "Province of Masbate",
    "city": "Milagros",
    "postal": "5410",
    "lat": 12.2181,
    "lon": 123.5095
  },
  {
    "country": "PH",
    "region": "Bicol",
    "province": "Province of Masbate",
    "city": "Mandaon",
    "postal": "5411",
    "lat": 12.3327,
    "lon": 123.3923
  },
  {
    "country": "PH",
    "region": "Bicol",
    "province": "Province of Masbate",
    "city": "Balud",
    "postal": "5412",
    "lat": 12.0369,
    "lon": 123.1935
  },
  {
    "country": "PH",
    "region": "Bicol",
    "province": "Province of Masbate",
    "city": "Baleno",
    "postal": "5413",
    "lat": 12.4739,
    "lon": 123.4982
  },
  {
    "country": "PH",
    "region": "Bicol",
    "province": "Province of Masbate",
    "city": "Aroroy",
    "postal": "5414",
    "lat": 12.5111,
    "lon": 123.3977
  },
  {
    "country": "PH",
    "region": "Bicol",
    "province": "Province of Masbate",
    "city": "Batuan",
    "postal": "5415",
    "lat": 12.3976,
    "lon": 123.7628
  },
  {
    "country": "PH",
    "region": "Bicol",
    "province": "Province of Masbate",
    "city": "San Fernando",
    "postal": "5416",
    "lat": 12.4833,
    "lon": 123.7622
  },
  {
    "country": "PH",
    "region": "Bicol",
    "province": "Province of Masbate",
    "city": "San Jacinto",
    "postal": "5417",
    "lat": 12.5677,
    "lon": 123.7337
  },
  {
    "country": "PH",
    "region": "Bicol",
    "province": "Province of Masbate",
    "city": "Monreal",
    "postal": "5418",
    "lat": 12.644,
    "lon": 123.6648
  },
  {
    "country": "PH",
    "region": "Bicol",
    "province": "Province of Masbate",
    "city": "Claveria",
    "postal": "5419",
    "lat": 12.9035,
    "lon": 123.2457
  },
  {
    "country": "PH",
    "region": "Bicol",
    "province": "Province of Masbate",
    "city": "San Pascual",
    "postal": "5420",
    "lat": 13.1289,
    "lon": 122.9771
  },
  {
    "country": "PH",
    "region": "Bicol",
    "province": "Province of Masbate",
    "city": "Buenavista",
    "postal": "5421",
    "lat": 13.1289,
    "lon": 122.9771
  },
  {
    "country": "PH",
    "region": "Bicol",
    "province": "Province of Sorsogon",
    "city": "Sorsogon",
    "postal": "4700",
    "lat": 12.9739,
    "lon": 123.9933
  },
  {
    "country": "PH",
    "region": "Bicol",
    "province": "Province of Sorsogon",
    "city": "Bacon",
    "postal": "4701",
    "lat": 13.0378,
    "lon": 124.0411
  },
  {
    "country": "PH",
    "region": "Bicol",
    "province": "Province of Sorsogon",
    "city": "Casiguran",
    "postal": "4702",
    "lat": 12.8736,
    "lon": 124.0097
  },
  {
    "country": "PH",
    "region": "Bicol",
    "province": "Province of Sorsogon",
    "city": "Juban",
    "postal": "4703",
    "lat": 12.8478,
    "lon": 123.9878
  },
  {
    "country": "PH",
    "region": "Bicol",
    "province": "Province of Sorsogon",
    "city": "Bulusan",
    "postal": "4704",
    "lat": 12.7494,
    "lon": 124.1209
  },
  {
    "country": "PH",
    "region": "Bicol",
    "province": "Province of Sorsogon",
    "city": "Magallanes",
    "postal": "4705",
    "lat": 12.8292,
    "lon": 123.8364
  },
  {
    "country": "PH",
    "region": "Bicol",
    "province": "Province of Sorsogon",
    "city": "Bulan",
    "postal": "4706",
    "lat": 12.6714,
    "lon": 123.875
  },
  {
    "country": "PH",
    "region": "Bicol",
    "province": "Province of Sorsogon",
    "city": "Irosin",
    "postal": "4707",
    "lat": 12.7001,
    "lon": 124.0322
  },
  {
    "country": "PH",
    "region": "Bicol",
    "province": "Province of Sorsogon",
    "city": "Matnog",
    "postal": "4708",
    "lat": 12.5878,
    "lon": 124.0875
  },
  {
    "country": "PH",
    "region": "Bicol",
    "province": "Province of Sorsogon",
    "city": "Sta. Magdalena",
    "postal": "4709",
    "lat": 12.648,
    "lon": 124.1093
  },
  {
    "country": "PH",
    "region": "Bicol",
    "province": "Province of Sorsogon",
    "city": "Gubat",
    "postal": "4710",
    "lat": 12.9206,
    "lon": 124.1231
  },
  {
    "country": "PH",
    "region": "Bicol",
    "province": "Province of Sorsogon",
    "city": "Prieto Diaz",
    "postal": "4711",
    "lat": 13.0417,
    "lon": 124.1939
  },
  {
    "country": "PH",
    "region": "Bicol",
    "province": "Province of Sorsogon",
    "city": "Barcelona",
    "postal": "4712",
    "lat": 12.8683,
    "lon": 124.1419
  },
  {
    "country": "PH",
    "region": "Bicol",
    "province": "Province of Sorsogon",
    "city": "Castilla",
    "postal": "4713",
    "lat": 12.9486,
    "lon": 123.8822
  },
  {
    "country": "PH",
    "region": "Bicol",
    "province": "Province of Sorsogon",
    "city": "Pilar",
    "postal": "4714",
    "lat": 12.9231,
    "lon": 123.6724
  },
  {
    "country": "PH",
    "region": "Bicol",
    "province": "Province of Sorsogon",
    "city": "Donsol",
    "postal": "4715",
    "lat": 12.9055,
    "lon": 123.5949
  },
  {
    "country": "PH",
    "region": "Western Visayas",
    "province": "Province of Aklan",
    "city": "Kalibo",
    "postal": "5600",
    "lat": 11.7061,
    "lon": 122.3644
  },
  {
    "country": "PH",
    "region": "Western Visayas",
    "province": "Province of Aklan",
    "city": "Banga",
    "postal": "5601",
    "lat": 11.6387,
    "lon": 122.3341
  },
  {
    "country": "PH",
    "region": "Western Visayas",
    "province": "Province of Aklan",
    "city": "Libacao",
    "postal": "5602",
    "lat": 11.4802,
    "lon": 122.3042
  },
  {
    "country": "PH",
    "region": "Western Visayas",
    "province": "Province of Aklan",
    "city": "Madalag",
    "postal": "5603",
    "lat": 11.5272,
    "lon": 122.3073
  },
  {
    "country": "PH",
    "region": "Western Visayas",
    "province": "Province of Aklan",
    "city": "Numancia",
    "postal": "5604",
    "lat": 11.7059,
    "lon": 122.3284
  },
  {
    "country": "PH",
    "region": "Western Visayas",
    "province": "Province of Aklan",
    "city": "Lezo",
    "postal": "5605",
    "lat": 11.6975,
    "lon": 122.2035
  },
  {
    "country": "PH",
    "region": "Western Visayas",
    "province": "Province of Aklan",
    "city": "Malinao",
    "postal": "5606",
    "lat": 11.6439,
    "lon": 122.3083
  },
  {
    "country": "PH",
    "region": "Western Visayas",
    "province": "Province of Aklan",
    "city": "Nabas",
    "postal": "5607",
    "lat": 11.831,
    "lon": 122.087
  },
  {
    "country": "PH",
    "region": "Western Visayas",
    "province": "Province of Aklan",
    "city": "Malay",
    "postal": "5608",
    "lat": 11.9003,
    "lon": 121.9091
  },
  {
    "country": "PH",
    "region": "Western Visayas",
    "province": "Province of Aklan",
    "city": "Buruanga",
    "postal": "5609",
    "lat": 11.8443,
    "lon": 121.8884
  },
  {
    "country": "PH",
    "region": "Western Visayas",
    "province": "Province of Aklan",
    "city": "New Washington",
    "postal": "5610",
    "lat": 11.6508,
    "lon": 122.4322
  },
  {
    "country": "PH",
    "region": "Western Visayas",
    "province": "Province of Aklan",
    "city": "Makato",
    "postal": "5611",
    "lat": 11.712,
    "lon": 122.2922
  },
  {
    "country": "PH",
    "region": "Western Visayas",
    "province": "Province of Aklan",
    "city": "Tangalan",
    "postal": "5612",
    "lat": 11.7789,
    "lon": 122.2634
  },
  {
    "country": "PH",
    "region": "Western Visayas",
    "province": "Province of Aklan",
    "city": "Ibajay",
    "postal": "5613",
    "lat": 11.8199,
    "lon": 122.162
  },
  {
    "country": "PH",
    "region": "Western Visayas",
    "province": "Province of Aklan",
    "city": "Balete",
    "postal": "5614",
    "lat": 11.5556,
    "lon": 122.3803
  },
  {
    "country": "PH",
    "region": "Western Visayas",
    "province": "Province of Aklan",
    "city": "Batan",
    "postal": "5615",
    "lat": 11.5857,
    "lon": 122.4971
  },
  {
    "country": "PH",
    "region": "Western Visayas",
    "province": "Province of Aklan",
    "city": "Altavas",
    "postal": "5616",
    "lat": 11.538,
    "lon": 122.487
  },
  {
    "country": "PH",
    "region": "Western Visayas",
    "province": "Province of Antique",
    "city": "San Jose de Buanavista",
    "postal": "5700",
    "lat": 11.1615,
    "lon": 122.0451
  },
  {
    "country": "PH",
    "region": "Western Visayas",
    "province": "Province of Antique",
    "city": "Belison",
    "postal": "5701",
    "lat": 10.8384,
    "lon": 121.9605
  },
  {
    "country": "PH",
    "region": "Western Visayas",
    "province": "Province of Antique",
    "city": "Patnongon",
    "postal": "5702",
    "lat": 10.9132,
    "lon": 121.9937
  },
  {
    "country": "PH",
    "region": "Western Visayas",
    "province": "Province of Antique",
    "city": "Valderrama",
    "postal": "5703",
    "lat": 11.0023,
    "lon": 122.1291
  },
  {
    "country": "PH",
    "region": "Western Visayas",
    "province": "Province of Antique",
    "city": "Bugasong",
    "postal": "5704",
    "lat": 11.0446,
    "lon": 122.0646
  },
  {
    "country": "PH",
    "region": "Western Visayas",
    "province": "Province of Antique",
    "city": "Laua-an",
    "postal": "5705",
    "lat": 11.1267,
    "lon": 122.068
  },
  {
    "country": "PH",
    "region": "Western Visayas",
    "province": "Province of Antique",
    "city": "Barbaza",
    "postal": "5706",
    "lat": 11.1957,
    "lon": 122.0386
  },
  {
    "country": "PH",
    "region": "Western Visayas",
    "province": "Province of Antique",
    "city": "Tibiao",
    "postal": "5707",
    "lat": 11.2915,
    "lon": 122.0354
  },
  {
    "country": "PH",
    "region": "Western Visayas",
    "province": "Province of Antique",
    "city": "Culasi",
    "postal": "5708",
    "lat": 11.4272,
    "lon": 122.056
  },
  {
    "country": "PH",
    "region": "Western Visayas",
    "province": "Province of Antique",
    "city": "Sebaste",
    "postal": "5709",
    "lat": 11.5901,
    "lon": 122.0945
  },
  {
    "country": "PH",
    "region": "Western Visayas",
    "province": "Province of Antique",
    "city": "Libertad",
    "postal": "5710",
    "lat": 11.5,
    "lon": 122.0833
  },
  {
    "country": "PH",
    "region": "Western Visayas",
    "province": "Province of Antique",
    "city": "Caluya",
    "postal": "5711",
    "lat": 11.931,
    "lon": 121.5477
  },
  {
    "country": "PH",
    "region": "Western Visayas",
    "province": "Province of Antique",
    "city": "Pandan",
    "postal": "5712",
    "lat": 11.7448,
    "lon": 122.1003
  },
  {
    "country": "PH",
    "region": "Western Visayas",
    "province": "Province of Antique",
    "city": "Sibalom",
    "postal": "5713",
    "lat": 10.79,
    "lon": 122.0178
  },
  {
    "country": "PH",
    "region": "Western Visayas",
    "province": "Province of Antique",
    "city": "San Remegio",
    "postal": "5714",
    "lat": 11.1267,
    "lon": 122.068
  },
  {
    "country": "PH",
    "region": "Western Visayas",
    "province": "Province of Antique",
    "city": "Hamtic",
    "postal": "5715",
    "lat": 10.7023,
    "lon": 121.9824
  },
  {
    "country": "PH",
    "region": "Western Visayas",
    "province": "Province of Antique",
    "city": "Tobias Fornier (Dao)",
    "postal": "5716",
    "lat": 11.1267,
    "lon": 122.068
  },
  {
    "country": "PH",
    "region": "Western Visayas",
    "province": "Province of Antique",
    "city": "Anini-y",
    "postal": "5717",
    "lat": 10.4312,
    "lon": 121.927
  },
  {
    "country": "PH",
    "region": "Western Visayas",
    "province": "Capiz",
    "city": "Roxas City",
    "postal": "5800",
    "lat": 11.5853,
    "lon": 122.7511
  },
  {
    "country": "PH",
    "region": "Western Visayas",
    "province": "Capiz",
    "city": "Panay",
    "postal": "5801",
    "lat": 11.5578,
    "lon": 122.7942
  },
  {
    "country": "PH",
    "region": "Western Visayas",
    "province": "Capiz",
    "city": "Pontevedra",
    "postal": "5802",
    "lat": 11.4812,
    "lon": 122.8325
  },
  {
    "country": "PH",
    "region": "Western Visayas",
    "province": "Capiz",
    "city": "President Roxas",
    "postal": "5803",
    "lat": 11.431,
    "lon": 122.9279
  },
  {
    "country": "PH",
    "region": "Western Visayas",
    "province": "Capiz",
    "city": "Pilar",
    "postal": "5804",
    "lat": 11.487,
    "lon": 122.9963
  },
  {
    "country": "PH",
    "region": "Western Visayas",
    "province": "Capiz",
    "city": "Ivisan",
    "postal": "5805",
    "lat": 11.5217,
    "lon": 122.6908
  },
  {
    "country": "PH",
    "region": "Western Visayas",
    "province": "Capiz",
    "city": "Sapian",
    "postal": "5806",
    "lat": 11.4943,
    "lon": 122.6027
  },
  {
    "country": "PH",
    "region": "Western Visayas",
    "province": "Capiz",
    "city": "Mambusao",
    "postal": "5807",
    "lat": 11.4336,
    "lon": 122.5982
  },
  {
    "country": "PH",
    "region": "Western Visayas",
    "province": "Capiz",
    "city": "Jamindan",
    "postal": "5808",
    "lat": 11.4002,
    "lon": 122.4983
  },
  {
    "country": "PH",
    "region": "Western Visayas",
    "province": "Capiz",
    "city": "Maayon",
    "postal": "5809",
    "lat": 11.3867,
    "lon": 122.7859
  },
  {
    "country": "PH",
    "region": "Western Visayas",
    "province": "Capiz",
    "city": "Dao",
    "postal": "5810",
    "lat": 11.3937,
    "lon": 122.6856
  },
  {
    "country": "PH",
    "region": "Western Visayas",
    "province": "Capiz",
    "city": "Cuartero",
    "postal": "5811",
    "lat": 11.3407,
    "lon": 122.6694
  },
  {
    "country": "PH",
    "region": "Western Visayas",
    "province": "Capiz",
    "city": "Dumarao",
    "postal": "5812",
    "lat": 11.2654,
    "lon": 122.6889
  },
  {
    "country": "PH",
    "region": "Western Visayas",
    "province": "Capiz",
    "city": "Dumalag",
    "postal": "5813",
    "lat": 11.308,
    "lon": 122.6236
  },
  {
    "country": "PH",
    "region": "Western Visayas",
    "province": "Capiz",
    "city": "Tapaz",
    "postal": "5814",
    "lat": 11.3659,
    "lon": 122.6844
  },
  {
    "country": "PH",
    "region": "Western Visayas",
    "province": "Capiz",
    "city": "Panitan",
    "postal": "5815",
    "lat": 11.466,
    "lon": 122.7725
  },
  {
    "country": "PH",
    "region": "Western Visayas",
    "province": "Capiz",
    "city": "Sigma",
    "postal": "5816",
    "lat": 11.4214,
    "lon": 122.6662
  },
  {
    "country": "PH",
    "region": "Western Visayas",
    "province": "Province of Iloilo",
    "city": "Iloilo City",
    "postal": "5000",
    "lat": 10.6969,
    "lon": 122.5644
  },
  {
    "country": "PH",
    "region": "Western Visayas",
    "province": "Province of Iloilo",
    "city": "Pavia",
    "postal": "5001",
    "lat": 10.7761,
    "lon": 122.5456
  },
  {
    "country": "PH",
    "region": "Western Visayas",
    "province": "Province of Iloilo",
    "city": "Santa Barbara",
    "postal": "5002",
    "lat": 10.8231,
    "lon": 122.5344
  },
  {
    "country": "PH",
    "region": "Western Visayas",
    "province": "Province of Iloilo",
    "city": "Leganes",
    "postal": "5003",
    "lat": 10.7872,
    "lon": 122.5892
  },
  {
    "country": "PH",
    "region": "Western Visayas",
    "province": "Province of Iloilo",
    "city": "Zarraga",
    "postal": "5004",
    "lat": 10.8197,
    "lon": 122.6081
  },
  {
    "country": "PH",
    "region": "Western Visayas",
    "province": "Province of Iloilo",
    "city": "New Lucena",
    "postal": "5005",
    "lat": 10.8147,
    "lon": 122.6068
  },
  {
    "country": "PH",
    "region": "Western Visayas",
    "province": "Province of Iloilo",
    "city": "Dumangas",
    "postal": "5006",
    "lat": 10.825,
    "lon": 122.713
  },
  {
    "country": "PH",
    "region": "Western Visayas",
    "province": "Province of Iloilo",
    "city": "Barotac Nuevo",
    "postal": "5007",
    "lat": 10.8942,
    "lon": 122.7044
  },
  {
    "country": "PH",
    "region": "Western Visayas",
    "province": "Province of Iloilo",
    "city": "Pototan",
    "postal": "5008",
    "lat": 10.9437,
    "lon": 122.6352
  },
  {
    "country": "PH",
    "region": "Western Visayas",
    "province": "Province of Iloilo",
    "city": "Anilao",
    "postal": "5009",
    "lat": 10.7667,
    "lon": 122.5667
  },
  {
    "country": "PH",
    "region": "Western Visayas",
    "province": "Province of Iloilo",
    "city": "Banate",
    "postal": "5010",
    "lat": 11.0,
    "lon": 122.8333
  },